[
    {
        "name": "Chen Family Clinic",
        "postal_code": "550153",
        "longitude": "103.8723123",
        "latitude": "1.369950997"
    },
    {
        "name": "Cheng Clinic",
        "postal_code": "560447",
        "longitude": "103.8559671",
        "latitude": "1.367479014"
    },
    {
        "name": "Cheong Family Clinic Pte Ltd",
        "postal_code": "210045",
        "longitude": "103.8508255",
        "latitude": "1.315595676"
    },
    {
        "name": "Cheong Medical Clinic",
        "postal_code": "598589",
        "longitude": "103.7733296",
        "latitude": "1.340548668"
    },
    {
        "name": "Chern Medical Clinic",
        "postal_code": "521138",
        "longitude": "103.9455884",
        "latitude": "1.345504506"
    },
    {
        "name": "Chestmed Pte Ltd",
        "postal_code": "228510",
        "longitude": "103.8354393",
        "latitude": "1.305165214"
    },
    {
        "name": "Chia & Lee Medical & Dental Clinic",
        "postal_code": "520802",
        "longitude": "103.938034",
        "latitude": "1.346084424"
    },
    {
        "name": "Chia Clinic And Surgery",
        "postal_code": "209264",
        "longitude": "103.8599688",
        "latitude": "1.312701808"
    },
    {
        "name": "Chiew Clinic",
        "postal_code": "548008",
        "longitude": "103.8849928",
        "latitude": "1.361976029"
    },
    {
        "name": "Chin Choo Clinic",
        "postal_code": "370035",
        "longitude": "103.8860103",
        "latitude": "1.329158997"
    },
    {
        "name": "Chin Leong Clinic",
        "postal_code": "120517",
        "longitude": "103.7601573",
        "latitude": "1.307476844"
    },
    {
        "name": "Chinatown Wellness Clinic",
        "postal_code": "050531",
        "longitude": "103.8461015",
        "latitude": "1.284392382"
    },
    {
        "name": "Chiron Medical Clinic",
        "postal_code": "320003",
        "longitude": "103.8611073",
        "latitude": "1.322587352"
    },
    {
        "name": "Chng Clinic And Surgery",
        "postal_code": "310178",
        "longitude": "103.8492645",
        "latitude": "1.333580258"
    },
    {
        "name": "Chong & Lim Family Clinic",
        "postal_code": "670103",
        "longitude": "103.7685384",
        "latitude": "1.378670709"
    },
    {
        "name": "Chong Medical Clinic",
        "postal_code": "470703",
        "longitude": "103.9198931",
        "latitude": "1.337165075"
    },
    {
        "name": "Chong'S Medical Centre",
        "postal_code": "239924",
        "longitude": "103.8441113",
        "latitude": "1.298152654"
    },
    {
        "name": "Choong'S Clinic",
        "postal_code": "520480",
        "longitude": "103.9536131",
        "latitude": "1.361898696"
    },
    {
        "name": "Choong'S Clinic",
        "postal_code": "390021",
        "longitude": "103.884413",
        "latitude": "1.30758614"
    },
    {
        "name": "Chua Clinic",
        "postal_code": "530678",
        "longitude": "103.8842364",
        "latitude": "1.370840764"
    },
    {
        "name": "Chua Clinic & Surgery",
        "postal_code": "760769",
        "longitude": "103.8332224",
        "latitude": "1.424602053"
    },
    {
        "name": "Chua Clinic & Surgery",
        "postal_code": "760844",
        "longitude": "103.8354465",
        "latitude": "1.415625174"
    },
    {
        "name": "Chua Medico Clinic Llp",
        "postal_code": "560529",
        "longitude": "103.8554554",
        "latitude": "1.372343582"
    },
    {
        "name": "Chuah Clinic & Surgery Pte Ltd",
        "postal_code": "380113",
        "longitude": "103.8861593",
        "latitude": "1.320525959"
    },
    {
        "name": "Chungkiaw Clinic Pte Ltd",
        "postal_code": "596180",
        "longitude": "103.7736491",
        "latitude": "1.340548479"
    },
    {
        "name": "Citilife Family Clinic",
        "postal_code": "600215",
        "longitude": "103.7385145",
        "latitude": "1.339933272"
    },
    {
        "name": "Citizen Family Clinic And Surgery",
        "postal_code": "760102",
        "longitude": "103.828763",
        "latitude": "1.430618304"
    },
    {
        "name": "Clarion Medical",
        "postal_code": "560202",
        "longitude": "103.8445163",
        "latitude": "1.36844644"
    },
    {
        "name": "Da Clinic @ Bishan",
        "postal_code": "570501",
        "longitude": "103.8490773",
        "latitude": "1.348416898"
    },
    {
        "name": "1 Medical Teck Ghee",
        "postal_code": "560410",
        "longitude": "103.854645",
        "latitude": "1.362715419"
    },
    {
        "name": "115 Eastpoint Clinic & Surgery",
        "postal_code": "460115",
        "longitude": "103.9368654",
        "latitude": "1.33143368"
    },
    {
        "name": "18 Clinic",
        "postal_code": "322101",
        "longitude": "103.8610875",
        "latitude": "1.31942539"
    },
    {
        "name": "1Aesthetics, Medical & Surgery",
        "postal_code": "059818",
        "longitude": "103.8467962",
        "latitude": "1.2889562"
    },
    {
        "name": "338 Family Clinic",
        "postal_code": "560338",
        "longitude": "103.848987",
        "latitude": "1.363895702"
    },
    {
        "name": "57 Medical Clinic (Geylang Bahru)",
        "postal_code": "330057",
        "longitude": "103.8691478",
        "latitude": "1.323537806"
    },
    {
        "name": "81 Family Clinic",
        "postal_code": "440086",
        "longitude": "103.9067545",
        "latitude": "1.301737216"
    },
    {
        "name": "888 Plaza Family Clinic",
        "postal_code": "730888",
        "longitude": "103.7953144",
        "latitude": "1.437123015"
    },
    {
        "name": "A & A Clinic",
        "postal_code": "732570",
        "longitude": "103.7904541",
        "latitude": "1.431063955"
    },
    {
        "name": "A Life Clinic Pte Ltd",
        "postal_code": "307506",
        "longitude": "103.8441607",
        "latitude": "1.32070511"
    },
    {
        "name": "A Medical Clinic",
        "postal_code": "081001",
        "longitude": "103.8400012",
        "latitude": "1.277426543"
    },
    {
        "name": "A+Ffordable Clinic (Amk Ave 10)",
        "postal_code": "560449",
        "longitude": "103.856047",
        "latitude": "1.367858882"
    },
    {
        "name": "A+Ffordable Clinic (Hougang)",
        "postal_code": "530681",
        "longitude": "103.8856792",
        "latitude": "1.372978403"
    },
    {
        "name": "A1 Medical Clinic",
        "postal_code": "460418",
        "longitude": "103.9300365",
        "latitude": "1.328564212"
    },
    {
        "name": "Able Medical",
        "postal_code": "524201",
        "longitude": "103.9535865",
        "latitude": "1.352262314"
    },
    {
        "name": "Acms Medical Clinic",
        "postal_code": "239693",
        "longitude": "103.8373592",
        "latitude": "1.301398788"
    },
    {
        "name": "Acumed Medical Group",
        "postal_code": "049318",
        "longitude": "103.8525474",
        "latitude": "1.284187855"
    },
    {
        "name": "Acumed Medical Group",
        "postal_code": "648886",
        "longitude": "103.706685",
        "latitude": "1.339452717"
    },
    {
        "name": "Acumed Medical Group",
        "postal_code": "600038",
        "longitude": "103.7427876",
        "latitude": "1.321138967"
    },
    {
        "name": "Acumed Medical Group",
        "postal_code": "730111",
        "longitude": "103.7820594",
        "latitude": "1.437943817"
    },
    {
        "name": "Acumed Medical Group",
        "postal_code": "610064",
        "longitude": "103.7224512",
        "latitude": "1.332373476"
    },
    {
        "name": "Acumed Medical Group",
        "postal_code": "639591",
        "longitude": "103.6522264",
        "latitude": "1.317154486"
    },
    {
        "name": "Acumed Medical Group",
        "postal_code": "639499",
        "longitude": "103.6609528",
        "latitude": "1.321481665"
    },
    {
        "name": "Adidah Family Clinic & Surgery",
        "postal_code": "520821",
        "longitude": "103.9346491",
        "latitude": "1.348419767"
    },
    {
        "name": "Admiralty Family Medical Clinic",
        "postal_code": "730693",
        "longitude": "103.803765",
        "latitude": "1.43808788"
    },
    {
        "name": "Advance Clinic & Surgery Pte Ltd",
        "postal_code": "400301",
        "longitude": "103.901953",
        "latitude": "1.330688025"
    },
    {
        "name": "Ae Medical Clinic",
        "postal_code": "792467",
        "longitude": "103.8779334",
        "latitude": "1.398071055"
    },
    {
        "name": "Aidan Medical Clinic",
        "postal_code": "460539",
        "longitude": "103.9253073",
        "latitude": "1.331313866"
    },
    {
        "name": "Alexandra Family Clinic & Surgery",
        "postal_code": "142057",
        "longitude": "103.810959",
        "latitude": "1.292703398"
    },
    {
        "name": "Alliance Clinic And Partners Pte Ltd",
        "postal_code": "410652",
        "longitude": "103.907743",
        "latitude": "1.332696519"
    },
    {
        "name": "Amda International Peace Clinic",
        "postal_code": "257720",
        "longitude": "103.8191356",
        "latitude": "1.308472041"
    },
    {
        "name": "Amity Medical Clinic & Dental Surgery",
        "postal_code": "650371",
        "longitude": "103.7506946",
        "latitude": "1.359259409"
    },
    {
        "name": "Amk Family Clinic Pte Ltd",
        "postal_code": "569922",
        "longitude": "103.8471594",
        "latitude": "1.369297297"
    },
    {
        "name": "Ampm Family Clinic & Surgery Pte. Ltd.",
        "postal_code": "310123",
        "longitude": "103.8457038",
        "latitude": "1.338649018"
    },
    {
        "name": "Ang Mo Kio Medical Centre",
        "postal_code": "560157",
        "longitude": "103.8393951",
        "latitude": "1.375305621"
    },
    {
        "name": "Ansari Family Clinic & Surgery",
        "postal_code": "388259",
        "longitude": "103.8833387",
        "latitude": "1.315922407"
    },
    {
        "name": "Apex Clinic & Surgery",
        "postal_code": "760844",
        "longitude": "103.8354465",
        "latitude": "1.415625174"
    },
    {
        "name": "Apex Clinic & Surgery",
        "postal_code": "730306",
        "longitude": "103.7746366",
        "latitude": "1.42992992"
    },
    {
        "name": "Apex Medical Centre (Jurong) Pte Ltd",
        "postal_code": "640960",
        "longitude": "103.6914596",
        "latitude": "1.341385312"
    },
    {
        "name": "Ar-Raudhah Medical Clinic And Surgery Pte Ltd",
        "postal_code": "650372",
        "longitude": "103.7512137",
        "latitude": "1.358669167"
    },
    {
        "name": "Arcadia Clinic",
        "postal_code": "597626",
        "longitude": "103.7789725",
        "latitude": "1.320441712"
    },
    {
        "name": "Asiamedic Wellness Assessment Centre",
        "postal_code": "238868",
        "longitude": "103.8315074",
        "latitude": "1.305809816"
    },
    {
        "name": "Aspen Clinic",
        "postal_code": "570283",
        "longitude": "103.8447486",
        "latitude": "1.358919071"
    },
    {
        "name": "Associate Dispensaries",
        "postal_code": "310094",
        "longitude": "103.8495383",
        "latitude": "1.338894428"
    },
    {
        "name": "Assurance Medicare Clinic And Surgery",
        "postal_code": "437127",
        "longitude": "103.8967291",
        "latitude": "1.302888194"
    },
    {
        "name": "Atlas Pacific Medical",
        "postal_code": "248327",
        "longitude": "103.8276209",
        "latitude": "1.294460986"
    },
    {
        "name": "Atrio Family Clinic (Amk) Pte. Ltd.",
        "postal_code": "560532",
        "longitude": "103.8545942",
        "latitude": "1.373808515"
    },
    {
        "name": "Acacia Medical Clinic",
        "postal_code": "109684",
        "longitude": "103.8030238",
        "latitude": "1.282201354"
    },
    {
        "name": "Acumed Medical Group",
        "postal_code": "649846",
        "longitude": "103.7059271",
        "latitude": "1.338451489"
    },
    {
        "name": "Acumed Medical Group",
        "postal_code": "460214",
        "longitude": "103.932493",
        "latitude": "1.325875652"
    },
    {
        "name": "Acumed Medical Group",
        "postal_code": "543215",
        "longitude": "103.8927872",
        "latitude": "1.389770263"
    },
    {
        "name": "Acumed Medical Group",
        "postal_code": "629117",
        "longitude": "103.6784097",
        "latitude": "1.325617678"
    },
    {
        "name": "Acumed Medical Group",
        "postal_code": "637370",
        "longitude": "103.6265246",
        "latitude": "1.289094626"
    },
    {
        "name": "Affinity Medical Clinic",
        "postal_code": "550253",
        "longitude": "103.8708515",
        "latitude": "1.354039398"
    },
    {
        "name": "Allergy, Arthritis & Rheumatism Clinic",
        "postal_code": "217562",
        "longitude": "103.8539295",
        "latitude": "1.312473241"
    },
    {
        "name": "Allhealth Family Clinic",
        "postal_code": "523872",
        "longitude": "103.9316236",
        "latitude": "1.355242902"
    },
    {
        "name": "Ally Health",
        "postal_code": "140462",
        "longitude": "103.7982276",
        "latitude": "1.299961994"
    },
    {
        "name": "Ang Mo Kio Family Medicine Clinic",
        "postal_code": "569841",
        "longitude": "103.8459494",
        "latitude": "1.37193729"
    },
    {
        "name": "Anteh Dispensary Pte Ltd",
        "postal_code": "398664",
        "longitude": "103.8824556",
        "latitude": "1.312776046"
    },
    {
        "name": "Apollo Medical Centre",
        "postal_code": "210668",
        "longitude": "103.8514782",
        "latitude": "1.30758124"
    },
    {
        "name": "Asia Healthpartners",
        "postal_code": "238863",
        "longitude": "103.8339619",
        "latitude": "1.3045061"
    },
    {
        "name": "Atrio Family Clinic",
        "postal_code": "760291",
        "longitude": "103.8367239",
        "latitude": "1.435760804"
    },
    {
        "name": "B S Chew Clinic",
        "postal_code": "600252",
        "longitude": "103.7381453",
        "latitude": "1.343026442"
    },
    {
        "name": "B T Goh Family Clinic & Surgery",
        "postal_code": "310194",
        "longitude": "103.8581819",
        "latitude": "1.330939337"
    },
    {
        "name": "Balkis Family Clinic",
        "postal_code": "470631",
        "longitude": "103.9149418",
        "latitude": "1.332959235"
    },
    {
        "name": "Bedok  Central Clinic",
        "postal_code": "460214",
        "longitude": "103.932493",
        "latitude": "1.325875652"
    },
    {
        "name": "Bedok Clinic & Surgery(Family Medical Centre)",
        "postal_code": "460017",
        "longitude": "103.9355635",
        "latitude": "1.32014883"
    },
    {
        "name": "Bedok Life Clinic",
        "postal_code": "460123",
        "longitude": "103.9373433",
        "latitude": "1.329198686"
    },
    {
        "name": "Bedok Medical Centre",
        "postal_code": "460018",
        "longitude": "103.9347342",
        "latitude": "1.320625049"
    },
    {
        "name": "Bishan Grace Clinic",
        "postal_code": "570150",
        "longitude": "103.8552136",
        "latitude": "1.344527069"
    },
    {
        "name": "Bl Medical Associates",
        "postal_code": "118222",
        "longitude": "103.784855",
        "latitude": "1.290761492"
    },
    {
        "name": "Bok Family Clinic  Pte Ltd",
        "postal_code": "470117",
        "longitude": "103.9086889",
        "latitude": "1.331413249"
    },
    {
        "name": "Boon Keng Clinic & Surgery",
        "postal_code": "380011",
        "longitude": "103.870914",
        "latitude": "1.314239371"
    },
    {
        "name": "Boon Lay Central Clinic",
        "postal_code": "640221",
        "longitude": "103.7124293",
        "latitude": "1.346348197"
    },
    {
        "name": "Boon Lay Clinic & Surgery",
        "postal_code": "640221",
        "longitude": "103.7124293",
        "latitude": "1.346348197"
    },
    {
        "name": "Boon Lay Corporation Clinic",
        "postal_code": "600350",
        "longitude": "103.7312556",
        "latitude": "1.344049419"
    },
    {
        "name": "Boston Medical",
        "postal_code": "380119",
        "longitude": "103.8860581",
        "latitude": "1.320128873"
    },
    {
        "name": "Bukit Batok Medical Clinic",
        "postal_code": "650207",
        "longitude": "103.7493822",
        "latitude": "1.346248662"
    },
    {
        "name": "Bukit Timah Clinic",
        "postal_code": "269731",
        "longitude": "103.8090586",
        "latitude": "1.324575517"
    },
    {
        "name": "Bukit Timah Nam Sang  Clinic",
        "postal_code": "598591",
        "longitude": "103.7732376",
        "latitude": "1.34055525"
    },
    {
        "name": "Banyan Clinic Pte Ltd.",
        "postal_code": "730768",
        "longitude": "103.798141",
        "latitude": "1.445622907"
    },
    {
        "name": "Beo Crescent Clinic & Surgery",
        "postal_code": "160040",
        "longitude": "103.827513",
        "latitude": "1.289057891"
    },
    {
        "name": "Bethesda Medical Centre",
        "postal_code": "038983",
        "longitude": "103.8590144",
        "latitude": "1.295931895"
    },
    {
        "name": "Bless Medical Centre Pte Ltd",
        "postal_code": "640221",
        "longitude": "103.7124293",
        "latitude": "1.346348197"
    },
    {
        "name": "Braddell Family Clinic",
        "postal_code": "310124",
        "longitude": "103.8446273",
        "latitude": "1.338648767"
    },
    {
        "name": "C & K Family Clinic Pte Ltd",
        "postal_code": "455297",
        "longitude": "103.9293052",
        "latitude": "1.313169342"
    },
    {
        "name": "C H Tan Medical Clinic & Dental Surgery",
        "postal_code": "650177",
        "longitude": "103.7417421",
        "latitude": "1.346344075"
    },
    {
        "name": "C K Tan Family Clinic & Surgery Pte Ltd",
        "postal_code": "310125",
        "longitude": "103.8457371",
        "latitude": "1.338331334"
    },
    {
        "name": "C Y Kok Clinic & Surgery",
        "postal_code": "560157",
        "longitude": "103.8393951",
        "latitude": "1.375305621"
    },
    {
        "name": "C.M.C. Wong Binjai Clinic",
        "postal_code": "589824",
        "longitude": "103.7868541",
        "latitude": "1.336223842"
    },
    {
        "name": "C3 Family Clinic @Aljunied Crescent",
        "postal_code": "380095",
        "longitude": "103.8861957",
        "latitude": "1.32170329"
    },
    {
        "name": "Care Medical Pte Ltd",
        "postal_code": "530683",
        "longitude": "103.8863678",
        "latitude": "1.373312701"
    },
    {
        "name": "Caritas Clinic",
        "postal_code": "400304",
        "longitude": "103.9012286",
        "latitude": "1.329552568"
    },
    {
        "name": "Cashew Medical & Surgery",
        "postal_code": "670445",
        "longitude": "103.7707683",
        "latitude": "1.383580446"
    },
    {
        "name": "Cassia Clinic & Surgery",
        "postal_code": "390034",
        "longitude": "103.8844718",
        "latitude": "1.309640785"
    },
    {
        "name": "Cck Family Clinic",
        "postal_code": "680304",
        "longitude": "103.7431458",
        "latitude": "1.384496081"
    },
    {
        "name": "Cecilia Family Clinic & Surgery",
        "postal_code": "520484",
        "longitude": "103.9526394",
        "latitude": "1.361897859"
    },
    {
        "name": "Central 24-Hr Clinic (Bedok)",
        "postal_code": "460219",
        "longitude": "103.9329481",
        "latitude": "1.324964577"
    },
    {
        "name": "Central 24-Hr Clinic (Clementi)",
        "postal_code": "120450",
        "longitude": "103.7654763",
        "latitude": "1.313538861"
    },
    {
        "name": "Central 24-Hr Clinic (Hougang)",
        "postal_code": "530681",
        "longitude": "103.8856792",
        "latitude": "1.372978403"
    },
    {
        "name": "Central 24-Hr Clinic (Marsiling)",
        "postal_code": "730303",
        "longitude": "103.7740111",
        "latitude": "1.430799616"
    },
    {
        "name": "Central 24-Hr Clinic (Pasir Ris)",
        "postal_code": "510446",
        "longitude": "103.9577269",
        "latitude": "1.370306193"
    },
    {
        "name": "Central 24-Hr Clinic (Tampines)",
        "postal_code": "524201",
        "longitude": "103.9535865",
        "latitude": "1.352262314"
    },
    {
        "name": "Central 24-Hr Clinic (Woodlands)",
        "postal_code": "730768",
        "longitude": "103.798141",
        "latitude": "1.445622907"
    },
    {
        "name": "Central 24-Hr Clinic (Yishun)",
        "postal_code": "761701",
        "longitude": "103.8279432",
        "latitude": "1.429878455"
    },
    {
        "name": "Central Medical Group Pte Ltd",
        "postal_code": "150011",
        "longitude": "103.8089633",
        "latitude": "1.286621904"
    },
    {
        "name": "Chai Chee Clinic & Surgery",
        "postal_code": "461025",
        "longitude": "103.9241496",
        "latitude": "1.323289599"
    },
    {
        "name": "Chan Family Clinic",
        "postal_code": "437844",
        "longitude": "103.9015159",
        "latitude": "1.304097312"
    },
    {
        "name": "Chang Clinic",
        "postal_code": "588996",
        "longitude": "103.7786001",
        "latitude": "1.338759308"
    },
    {
        "name": "Chang Clinic & Surgery",
        "postal_code": "080007",
        "longitude": "103.8386795",
        "latitude": "1.276924352"
    },
    {
        "name": "Charis Clinic & Surgery",
        "postal_code": "521164",
        "longitude": "103.9460007",
        "latitude": "1.349621515"
    },
    {
        "name": "Goh Clinic + Surgery",
        "postal_code": "650283",
        "longitude": "103.7575394",
        "latitude": "1.346943657"
    },
    {
        "name": "Gooddoctors Medical Clinic",
        "postal_code": "768897",
        "longitude": "103.841661",
        "latitude": "1.43312284"
    },
    {
        "name": "Grace Clinic & Surgery",
        "postal_code": "560607",
        "longitude": "103.8388167",
        "latitude": "1.380467586"
    },
    {
        "name": "Great Health Medical Clinic",
        "postal_code": "560407",
        "longitude": "103.8552477",
        "latitude": "1.361913472"
    },
    {
        "name": "Green Cross Medical Centre",
        "postal_code": "520824",
        "longitude": "103.9327149",
        "latitude": "1.349037435"
    },
    {
        "name": "Greenlife Clinic & Surgery",
        "postal_code": "759775",
        "longitude": "103.8201395",
        "latitude": "1.449026685"
    },
    {
        "name": "Greenlife Clinic & Surgery",
        "postal_code": "680624",
        "longitude": "103.7470848",
        "latitude": "1.398047361"
    },
    {
        "name": "Greenlink Medical Clinic",
        "postal_code": "760807",
        "longitude": "103.8315784",
        "latitude": "1.416498758"
    },
    {
        "name": "Gsh Clinic & Surgery Pte. Ltd.",
        "postal_code": "545523",
        "longitude": "103.8768836",
        "latitude": "1.354665219"
    },
    {
        "name": "Gerrard Teoh Hematology & Medical Clinic",
        "postal_code": "307506",
        "longitude": "103.8441607",
        "latitude": "1.32070511"
    },
    {
        "name": "Greenforest Family Clinic",
        "postal_code": "523878",
        "longitude": "103.9293638",
        "latitude": "1.351264112"
    },
    {
        "name": "H S Lee Clinic & Surgery",
        "postal_code": "760173",
        "longitude": "103.8311207",
        "latitude": "1.437066282"
    },
    {
        "name": "Harmony Family Clinic",
        "postal_code": "680235",
        "longitude": "103.7487492",
        "latitude": "1.379756644"
    },
    {
        "name": "Havelock Family Clinic",
        "postal_code": "160022",
        "longitude": "103.8288242",
        "latitude": "1.288746037"
    },
    {
        "name": "Heal Medical Centre",
        "postal_code": "329714",
        "longitude": "103.8531997",
        "latitude": "1.322133428"
    },
    {
        "name": "Health Partners Family Clinic",
        "postal_code": "658713",
        "longitude": "103.7492448",
        "latitude": "1.35001921"
    },
    {
        "name": "Health Partners Medical Clinic",
        "postal_code": "069532",
        "longitude": "103.8489583",
        "latitude": "1.281135635"
    },
    {
        "name": "Health Partners Medical Clinic (Siglap)",
        "postal_code": "455289",
        "longitude": "103.9263296",
        "latitude": "1.313126779"
    },
    {
        "name": "Health Partnership Medical Centre",
        "postal_code": "090109",
        "longitude": "103.8253108",
        "latitude": "1.273929399"
    },
    {
        "name": "Healthbridge Family Clinic",
        "postal_code": "821615",
        "longitude": "103.909541",
        "latitude": "1.403860564"
    },
    {
        "name": "Healthcare Family Clinic & Surgery",
        "postal_code": "570403",
        "longitude": "103.833604",
        "latitude": "1.362870322"
    },
    {
        "name": "Healthcare Medical @ Kovan",
        "postal_code": "530208",
        "longitude": "103.8866361",
        "latitude": "1.358696799"
    },
    {
        "name": "Healthcare Medical @ Railmall",
        "postal_code": "678067",
        "longitude": "103.7676041",
        "latitude": "1.359609829"
    },
    {
        "name": "Healthify Medical Family Clinic",
        "postal_code": "329714",
        "longitude": "103.8531997",
        "latitude": "1.322133428"
    },
    {
        "name": "Healthline Family Clinic & Surgery Pte. Ltd.",
        "postal_code": "461025",
        "longitude": "103.9241496",
        "latitude": "1.323289599"
    },
    {
        "name": "Healthlink (Amk) Medical Centre",
        "postal_code": "560108",
        "longitude": "103.8382019",
        "latitude": "1.370966352"
    },
    {
        "name": "Healthlink Family Clinic & Surgery",
        "postal_code": "270021",
        "longitude": "103.788546",
        "latitude": "1.310103026"
    },
    {
        "name": "Everhealth Medical Centre",
        "postal_code": "530540",
        "longitude": "103.8912825",
        "latitude": "1.377815681"
    },
    {
        "name": "Everton Clinic",
        "postal_code": "080007",
        "longitude": "103.8386795",
        "latitude": "1.276924352"
    },
    {
        "name": "Everwell Clinic & Surgery",
        "postal_code": "210045",
        "longitude": "103.8508255",
        "latitude": "1.315595676"
    },
    {
        "name": "Excel Family Clinic",
        "postal_code": "538719",
        "longitude": "103.887832",
        "latitude": "1.379245291"
    },
    {
        "name": "Excelsior Clinic & Surgery",
        "postal_code": "650283",
        "longitude": "103.7575394",
        "latitude": "1.346943657"
    },
    {
        "name": "Edgedale Medical Clinic (Cambridge)",
        "postal_code": "210040",
        "longitude": "103.8482431",
        "latitude": "1.315993017"
    },
    {
        "name": "Elissa Medical Clinic",
        "postal_code": "538692",
        "longitude": "103.8794723",
        "latitude": "1.375715307"
    },
    {
        "name": "Elyon Family Clinic And Surgery",
        "postal_code": "102078",
        "longitude": "103.8083352",
        "latitude": "1.27363296"
    },
    {
        "name": "Etern Medical Clinic",
        "postal_code": "828868",
        "longitude": "103.9020726",
        "latitude": "1.404546537"
    },
    {
        "name": "Etern Medical Clinic (Fernvale Palm)",
        "postal_code": "791432",
        "longitude": "103.8772023",
        "latitude": "1.394750476"
    },
    {
        "name": "Etern Medical Clinic (Sengkang)",
        "postal_code": "797653",
        "longitude": "103.8761255",
        "latitude": "1.391470154"
    },
    {
        "name": "Eterna Medical Clinic",
        "postal_code": "560629",
        "longitude": "103.8404087",
        "latitude": "1.38010475"
    },
    {
        "name": "F K Lim Family Clinic",
        "postal_code": "520267",
        "longitude": "103.9492592",
        "latitude": "1.350772788"
    },
    {
        "name": "Faith Clinic (Bedok)",
        "postal_code": "470746",
        "longitude": "103.9212157",
        "latitude": "1.337286448"
    },
    {
        "name": "Faith Clinic (Simei)",
        "postal_code": "520139",
        "longitude": "103.9565613",
        "latitude": "1.34668351"
    },
    {
        "name": "Faith Clinic (Toa Payoh)",
        "postal_code": "310211",
        "longitude": "103.8537689",
        "latitude": "1.340421788"
    },
    {
        "name": "Faith Clinic (Yishun)",
        "postal_code": "768698",
        "longitude": "103.8412688",
        "latitude": "1.417952885"
    },
    {
        "name": "Faith Family Clinic",
        "postal_code": "440057",
        "longitude": "103.9154848",
        "latitude": "1.306512573"
    },
    {
        "name": "Faith Healthcare (Rivervale)",
        "postal_code": "545082",
        "longitude": "103.9044837",
        "latitude": "1.39250411"
    },
    {
        "name": "Faith Healthcare (Tampines)",
        "postal_code": "529287",
        "longitude": "103.9599002",
        "latitude": "1.354549443"
    },
    {
        "name": "Faith Medical Clinic & Surgery",
        "postal_code": "522487",
        "longitude": "103.9578842",
        "latitude": "1.360758204"
    },
    {
        "name": "Fajar Family Clinic & Surgery",
        "postal_code": "670445",
        "longitude": "103.7707683",
        "latitude": "1.383580446"
    },
    {
        "name": "Family Care Clinic & Surgery",
        "postal_code": "560608",
        "longitude": "103.8367603",
        "latitude": "1.3785821"
    },
    {
        "name": "Family Care Clinic Pte Ltd",
        "postal_code": "650415",
        "longitude": "103.7466107",
        "latitude": "1.363268779"
    },
    {
        "name": "Family Care Medical Centre Pte Ltd",
        "postal_code": "530916",
        "longitude": "103.8842937",
        "latitude": "1.374912942"
    },
    {
        "name": "Family Health Clinic",
        "postal_code": "270043",
        "longitude": "103.7928976",
        "latitude": "1.307434111"
    },
    {
        "name": "Family Health Clinic & Surgery",
        "postal_code": "320002",
        "longitude": "103.8429355",
        "latitude": "1.325896202"
    },
    {
        "name": "Family Health Medical Centre",
        "postal_code": "567226",
        "longitude": "103.8398611",
        "latitude": "1.366825903"
    },
    {
        "name": "Clifford Dispensary Pte Ltd",
        "postal_code": "819658",
        "longitude": "103.98546",
        "latitude": "1.34821194"
    },
    {
        "name": "Clifford Dispensary Pte Ltd",
        "postal_code": "238868",
        "longitude": "103.8315074",
        "latitude": "1.305809816"
    },
    {
        "name": "Clinic @ The Sail",
        "postal_code": "018987",
        "longitude": "103.8526586",
        "latitude": "1.280769435"
    },
    {
        "name": "Clinic Faridah",
        "postal_code": "461059",
        "longitude": "103.9406956",
        "latitude": "1.324058986"
    },
    {
        "name": "Clinical Associates Medical Centre",
        "postal_code": "680137",
        "longitude": "103.7524838",
        "latitude": "1.38004753"
    },
    {
        "name": "Cmy Medical",
        "postal_code": "461037",
        "longitude": "103.9262076",
        "latitude": "1.325442003"
    },
    {
        "name": "Comfort Clinic & Surgery",
        "postal_code": "550214",
        "longitude": "103.8736335",
        "latitude": "1.357324352"
    },
    {
        "name": "Compassvale 297A Medical Clinic",
        "postal_code": "541297",
        "longitude": "103.9006973",
        "latitude": "1.39483596"
    },
    {
        "name": "Countryside Clinic And Surgery",
        "postal_code": "760106",
        "longitude": "103.827452",
        "latitude": "1.431478614"
    },
    {
        "name": "Crawfurd Medical",
        "postal_code": "038983",
        "longitude": "103.8590144",
        "latitude": "1.295931895"
    },
    {
        "name": "Crescent Clinic &  Surgery",
        "postal_code": "401001",
        "longitude": "103.9027278",
        "latitude": "1.321290305"
    },
    {
        "name": "Crest Family Clinic Pte. Ltd.",
        "postal_code": "730724",
        "longitude": "103.798713",
        "latitude": "1.444666565"
    },
    {
        "name": "Cross Street Medical Clinic",
        "postal_code": "050531",
        "longitude": "103.8461015",
        "latitude": "1.284392382"
    },
    {
        "name": "Calrose Medical Family Clinic",
        "postal_code": "821231",
        "longitude": "103.8918791",
        "latitude": "1.402059177"
    },
    {
        "name": "Camry Medical Centre",
        "postal_code": "310095",
        "longitude": "103.8489933",
        "latitude": "1.338890722"
    },
    {
        "name": "Canberra Care Medical Clinic",
        "postal_code": "750120",
        "longitude": "103.8315081",
        "latitude": "1.445674529"
    },
    {
        "name": "Care Family Clinic",
        "postal_code": "210663",
        "longitude": "103.8508577",
        "latitude": "1.305680317"
    },
    {
        "name": "Caring Family Clinic",
        "postal_code": "640501",
        "longitude": "103.7192222",
        "latitude": "1.349812254"
    },
    {
        "name": "Central 24-Hr Clinic ( Pioneer North )",
        "postal_code": "640959",
        "longitude": "103.6907217",
        "latitude": "1.341481236"
    },
    {
        "name": "Central 24Hr Clinic (Jurong West)",
        "postal_code": "640492",
        "longitude": "103.7251805",
        "latitude": "1.349945436"
    },
    {
        "name": "Changi Clinic",
        "postal_code": "400848",
        "longitude": "103.9014318",
        "latitude": "1.31720886"
    },
    {
        "name": "Chin Medical Clinic",
        "postal_code": "671524",
        "longitude": "103.7662285",
        "latitude": "1.385405693"
    },
    {
        "name": "Chua & Partners Family Clinic",
        "postal_code": "164018",
        "longitude": "103.8267854",
        "latitude": "1.285697429"
    },
    {
        "name": "Chua Medical Centre Pte Ltd",
        "postal_code": "520248",
        "longitude": "103.9535411",
        "latitude": "1.343593763"
    },
    {
        "name": "Chua Medical Clinic And Surgery Pte. Ltd.",
        "postal_code": "650642",
        "longitude": "103.7517067",
        "latitude": "1.349006479"
    },
    {
        "name": "Chung & Ee Medical Clinic",
        "postal_code": "090010",
        "longitude": "103.8197694",
        "latitude": "1.277731532"
    },
    {
        "name": "Circuit Medical Clinic",
        "postal_code": "370036",
        "longitude": "103.8869308",
        "latitude": "1.329026079"
    },
    {
        "name": "Citygp Family Clinic",
        "postal_code": "460122",
        "longitude": "103.9377871",
        "latitude": "1.328617198"
    },
    {
        "name": "Cityhealth Clinic & Surgery",
        "postal_code": "189721",
        "longitude": "103.859351",
        "latitude": "1.29884088"
    },
    {
        "name": "Clinic@Costa",
        "postal_code": "469994",
        "longitude": "103.940117",
        "latitude": "1.312188165"
    },
    {
        "name": "Clover Medical Clinic Pte Ltd",
        "postal_code": "689578",
        "longitude": "103.7466374",
        "latitude": "1.397067128"
    },
    {
        "name": "Cornerstone Medical",
        "postal_code": "271029",
        "longitude": "103.7845981",
        "latitude": "1.308492881"
    },
    {
        "name": "Cornerstone Medical Bidadari",
        "postal_code": "341106",
        "longitude": "103.8712597",
        "latitude": "1.334139"
    },
    {
        "name": "Corporation Clinic (Choa Chu Kang)",
        "postal_code": "680253",
        "longitude": "103.7443936",
        "latitude": "1.377366074"
    },
    {
        "name": "Crossroads Family Clinic",
        "postal_code": "522601",
        "longitude": "103.9375108",
        "latitude": "1.360882775"
    },
    {
        "name": "Da Clinic @ Potong Pasir",
        "postal_code": "347697",
        "longitude": "103.868214",
        "latitude": "1.331497081"
    },
    {
        "name": "Da Clinic @ Anson",
        "postal_code": "079903",
        "longitude": "103.8459238",
        "latitude": "1.275886743"
    },
    {
        "name": "Da Clinic @ Anchorvale",
        "postal_code": "540351",
        "longitude": "103.8866176",
        "latitude": "1.393327866"
    },
    {
        "name": "Da Clinic @ Bukit Batok",
        "postal_code": "650451",
        "longitude": "103.7439484",
        "latitude": "1.353038249"
    },
    {
        "name": "Da Clinic @ Sembawang",
        "postal_code": "758459",
        "longitude": "103.8248452",
        "latitude": "1.441824706"
    },
    {
        "name": "Da Clinic @ Taman Jurong",
        "postal_code": "610410",
        "longitude": "103.5817518",
        "latitude": "1.016264255"
    },
    {
        "name": "Daily Medical Centre",
        "postal_code": "530159",
        "longitude": "103.8795172",
        "latitude": "1.351448326"
    },
    {
        "name": "Davita Medical & Dialysis Centre (Jurong East)",
        "postal_code": "608526",
        "longitude": "103.7445746",
        "latitude": "1.330151721"
    },
    {
        "name": "Dayspring Medical Clinic (Tampines)",
        "postal_code": "529509",
        "longitude": "103.9438123",
        "latitude": "1.352368296"
    },
    {
        "name": "Doctors For Life Medical",
        "postal_code": "048660",
        "longitude": "103.84743",
        "latitude": "1.284288132"
    },
    {
        "name": "Doctors Inc Medical Group",
        "postal_code": "310178",
        "longitude": "103.8492645",
        "latitude": "1.333580258"
    },
    {
        "name": "Doctors Koo, Loh & Associates (Pte) Ltd",
        "postal_code": "610152",
        "longitude": "103.7207086",
        "latitude": "1.327076707"
    },
    {
        "name": "Dover Medical Centre",
        "postal_code": "138632",
        "longitude": "103.7875812",
        "latitude": "1.299150165"
    },
    {
        "name": "Dr Chua'S Family Clinic Pte. Ltd.",
        "postal_code": "640638",
        "longitude": "103.6971748",
        "latitude": "1.341692392"
    },
    {
        "name": "Dr Joyce & Partners Family Clinic",
        "postal_code": "821224",
        "longitude": "103.8928113",
        "latitude": "1.401956216"
    },
    {
        "name": "Dr Lim Lean Huat & Associates Pte Ltd",
        "postal_code": "329565",
        "longitude": "103.8432528",
        "latitude": "1.320475975"
    },
    {
        "name": "Dr Soh Family Clinic",
        "postal_code": "640966",
        "longitude": "103.692917",
        "latitude": "1.34170246"
    },
    {
        "name": "Drs Chua & Partners Pte Ltd",
        "postal_code": "082001",
        "longitude": "103.8424336",
        "latitude": "1.275687028"
    },
    {
        "name": "Drs Koo, Koh & Associates P.L.",
        "postal_code": "150163",
        "longitude": "103.8170727",
        "latitude": "1.283661393"
    },
    {
        "name": "Drs Lim & Chan Clinic",
        "postal_code": "531002",
        "longitude": "103.8756801",
        "latitude": "1.350607956"
    },
    {
        "name": "Drs Lim & Chan Clinic",
        "postal_code": "530106",
        "longitude": "103.8906808",
        "latitude": "1.353702971"
    },
    {
        "name": "Drs Oh, Lim, Wong & Partners",
        "postal_code": "640959",
        "longitude": "103.6907217",
        "latitude": "1.341481236"
    },
    {
        "name": "Drs Singh & Partners, Raffles City Medical Centre",
        "postal_code": "179103",
        "longitude": "103.8527683",
        "latitude": "1.293760281"
    },
    {
        "name": "Drs Tang & Partners Pte. Ltd.",
        "postal_code": "610064",
        "longitude": "103.7224512",
        "latitude": "1.332373476"
    },
    {
        "name": "Dtap @ Robertson",
        "postal_code": "237995",
        "longitude": "103.8414751",
        "latitude": "1.291899342"
    },
    {
        "name": "Dtap @ Siglap",
        "postal_code": "459108",
        "longitude": "103.9244498",
        "latitude": "1.312059282"
    },
    {
        "name": "Dtap @ Somerset",
        "postal_code": "239693",
        "longitude": "103.8373592",
        "latitude": "1.301398788"
    },
    {
        "name": "Duxton Medical Clinic Canberra",
        "postal_code": "750361",
        "longitude": "103.8139368",
        "latitude": "1.446315068"
    },
    {
        "name": "Davita Medical & Dialysis Centre (Farrer Park)",
        "postal_code": "217562",
        "longitude": "103.8539295",
        "latitude": "1.312473241"
    },
    {
        "name": "Davita Medical & Dialysis Centre (Novena)",
        "postal_code": "329565",
        "longitude": "103.8432528",
        "latitude": "1.320475975"
    },
    {
        "name": "Dawson Medical Clinic",
        "postal_code": "141085",
        "longitude": "103.8097586",
        "latitude": "1.295319663"
    },
    {
        "name": "Doctors Clinic & Surgery",
        "postal_code": "730305",
        "longitude": "103.7741024",
        "latitude": "1.430361458"
    },
    {
        "name": "Dover Clinic And Surgery Pte Ltd",
        "postal_code": "130028",
        "longitude": "103.7817797",
        "latitude": "1.304460927"
    },
    {
        "name": "Dr Chen And Partners Medical Clinic",
        "postal_code": "575630",
        "longitude": "103.8355647",
        "latitude": "1.353194953"
    },
    {
        "name": "Dr Chua & Lee Family Clinic",
        "postal_code": "570213",
        "longitude": "103.848153",
        "latitude": "1.357178221"
    },
    {
        "name": "Dr Gary'S Family Clinic",
        "postal_code": "160077",
        "longitude": "103.8267645",
        "latitude": "1.291134836"
    },
    {
        "name": "Dr Jeremy Chan Medical Clinic",
        "postal_code": "310123",
        "longitude": "103.8457038",
        "latitude": "1.338649018"
    },
    {
        "name": "Dr Joyce & Partners Family Clinic (Toa Payoh Branch)",
        "postal_code": "310177",
        "longitude": "103.8488548",
        "latitude": "1.333900341"
    },
    {
        "name": "Dr Nah & Lee Family Clinic",
        "postal_code": "730780",
        "longitude": "103.8010571",
        "latitude": "1.44834155"
    },
    {
        "name": "Dr Stanley Peck Family Clinic",
        "postal_code": "650636",
        "longitude": "103.7518257",
        "latitude": "1.349632741"
    },
    {
        "name": "Dr Steven Ang Aesthetic & Family Clinic",
        "postal_code": "154075",
        "longitude": "103.8157116",
        "latitude": "1.288464768"
    },
    {
        "name": "Dr W.K. Koo & Associates P.L.",
        "postal_code": "648886",
        "longitude": "103.706685",
        "latitude": "1.339452717"
    },
    {
        "name": "Dr.W Family Clinic",
        "postal_code": "260008",
        "longitude": "103.8053738",
        "latitude": "1.316411901"
    },
    {
        "name": "Drs Chan & Tang Family Clinic",
        "postal_code": "310125",
        "longitude": "103.8457371",
        "latitude": "1.338331334"
    },
    {
        "name": "Drs Koo, Fok & Associates Pte Ltd",
        "postal_code": "629907",
        "longitude": "103.6784106",
        "latitude": "1.325617641"
    },
    {
        "name": "Drs Koo, Fok & Associates( Pioneer )",
        "postal_code": "648310",
        "longitude": "103.6973216",
        "latitude": "1.337587011"
    },
    {
        "name": "Duxton Medical Clinic",
        "postal_code": "081007",
        "longitude": "103.8431177",
        "latitude": "1.277120122"
    },
    {
        "name": "E Medical Clinic & Surgery",
        "postal_code": "310126",
        "longitude": "103.8451309",
        "latitude": "1.337814657"
    },
    {
        "name": "E. L. Chin Family Clinic & Surgery Pte. Ltd.",
        "postal_code": "120432",
        "longitude": "103.7627406",
        "latitude": "1.314020576"
    },
    {
        "name": "E.J. Tan Clinic & Surgery",
        "postal_code": "600104",
        "longitude": "103.7376233",
        "latitude": "1.336584653"
    },
    {
        "name": "East Coast Family Clinic",
        "postal_code": "437932",
        "longitude": "103.8944461",
        "latitude": "1.297692663"
    },
    {
        "name": "East Coast Medical Centre Pte Ltd",
        "postal_code": "462057",
        "longitude": "103.9412887",
        "latitude": "1.323716787"
    },
    {
        "name": "Eastern Clinic & Surgery Pte Ltd",
        "postal_code": "600235",
        "longitude": "103.74216",
        "latitude": "1.339975979"
    },
    {
        "name": "Eastern Clinic & Surgery Pte Ltd",
        "postal_code": "600318",
        "longitude": "103.7305607",
        "latitude": "1.347508229"
    },
    {
        "name": "Eastern Clinic And Dental Surgery",
        "postal_code": "600303",
        "longitude": "103.7356222",
        "latitude": "1.344856112"
    },
    {
        "name": "Eastern Medical Centre",
        "postal_code": "470631",
        "longitude": "103.9149418",
        "latitude": "1.332959235"
    },
    {
        "name": "Ec Family Clinic",
        "postal_code": "409423",
        "longitude": "103.903048",
        "latitude": "1.319760658"
    },
    {
        "name": "Edgedale Medical Clinic",
        "postal_code": "821122",
        "longitude": "103.9091066",
        "latitude": "1.393509812"
    },
    {
        "name": "Ee Clinic",
        "postal_code": "560128",
        "longitude": "103.843547",
        "latitude": "1.370832028"
    },
    {
        "name": "Eh Medical Family Clinic (Bukit Batok)",
        "postal_code": "650292",
        "longitude": "103.7553752",
        "latitude": "1.344498105"
    },
    {
        "name": "Eh Medical",
        "postal_code": "735785",
        "longitude": "103.8054876",
        "latitude": "1.446804139"
    },
    {
        "name": "Eha Clinic @ Jurong",
        "postal_code": "640492",
        "longitude": "103.7251805",
        "latitude": "1.349945436"
    },
    {
        "name": "Ej Family Clinic & Surgery",
        "postal_code": "310109",
        "longitude": "103.8462025",
        "latitude": "1.341237271"
    },
    {
        "name": "El Shaddai Arthritis + Rheumatism Specialist Medical Centre",
        "postal_code": "322102",
        "longitude": "103.862002",
        "latitude": "1.320586095"
    },
    {
        "name": "Elias Family Clinic & Surgery",
        "postal_code": "510625",
        "longitude": "103.9419782",
        "latitude": "1.378602398"
    },
    {
        "name": "Emmanuel Medical Clinic",
        "postal_code": "520272",
        "longitude": "103.9502815",
        "latitude": "1.349159418"
    },
    {
        "name": "Eon Medical Clinic",
        "postal_code": "530475",
        "longitude": "103.9006753",
        "latitude": "1.375715479"
    },
    {
        "name": "Essential Family Clinic & Surgery",
        "postal_code": "731626",
        "longitude": "103.8001313",
        "latitude": "1.434097994"
    },
    {
        "name": "Esteemed Medical Clinic",
        "postal_code": "560260",
        "longitude": "103.8345012",
        "latitude": "1.368915924"
    },
    {
        "name": "Esther Yeo Clinic",
        "postal_code": "600256",
        "longitude": "103.7382634",
        "latitude": "1.344165273"
    },
    {
        "name": "Etern Medical Clinic (Punggol Sumang Lrt)",
        "postal_code": "823308",
        "longitude": "103.8990744",
        "latitude": "1.40800695"
    },
    {
        "name": "Evangel Medical Clinic",
        "postal_code": "467010",
        "longitude": "103.9248036",
        "latitude": "1.327275724"
    },
    {
        "name": "Evercare Medical Clinic",
        "postal_code": "680253",
        "longitude": "103.7443936",
        "latitude": "1.377366074"
    },
    {
        "name": "Evercare Medical Clinic (475) Pte Ltd",
        "postal_code": "680475",
        "longitude": "103.7390155",
        "latitude": "1.377897277"
    },
    {
        "name": "Everhealth Family Clinic & Surgery",
        "postal_code": "640762",
        "longitude": "103.6977321",
        "latitude": "1.348743572"
    },
    {
        "name": "Family Healthcare Clinic & Surgery Pte Ltd",
        "postal_code": "530523",
        "longitude": "103.890707",
        "latitude": "1.373720912"
    },
    {
        "name": "Family Life Clinic",
        "postal_code": "120727",
        "longitude": "103.7638177",
        "latitude": "1.304624876"
    },
    {
        "name": "Family Medical Clinic Pte Ltd",
        "postal_code": "650280",
        "longitude": "103.7570446",
        "latitude": "1.347701478"
    },
    {
        "name": "Family Medicare Clinic & Surgery",
        "postal_code": "560721",
        "longitude": "103.8478995",
        "latitude": "1.372349848"
    },
    {
        "name": "Family Medicine Clinic",
        "postal_code": "440058",
        "longitude": "103.914026",
        "latitude": "1.306117813"
    },
    {
        "name": "Familycare Clinic & Surgery",
        "postal_code": "313085",
        "longitude": "103.8474794",
        "latitude": "1.336285709"
    },
    {
        "name": "Fema Clinic & Surgery",
        "postal_code": "307506",
        "longitude": "103.8441607",
        "latitude": "1.32070511"
    },
    {
        "name": "Finest Health Medical Centre",
        "postal_code": "310019",
        "longitude": "103.8565042",
        "latitude": "1.335282286"
    },
    {
        "name": "First Care Family Clinic & Surgery",
        "postal_code": "600253",
        "longitude": "103.7367858",
        "latitude": "1.343188358"
    },
    {
        "name": "First Medical Centre Pte Ltd",
        "postal_code": "140169",
        "longitude": "103.8031059",
        "latitude": "1.290434865"
    },
    {
        "name": "First Medical Clinic & Surgery",
        "postal_code": "730167",
        "longitude": "103.7758841",
        "latitude": "1.433593706"
    },
    {
        "name": "Firsthealth Clinic & Surgery",
        "postal_code": "160126",
        "longitude": "103.82947",
        "latitude": "1.282534669"
    },
    {
        "name": "Focus Medical Centre",
        "postal_code": "680137",
        "longitude": "103.7524838",
        "latitude": "1.38004753"
    },
    {
        "name": "Fong Clinic",
        "postal_code": "140162",
        "longitude": "103.802857",
        "latitude": "1.292254672"
    },
    {
        "name": "Foo Clinic",
        "postal_code": "640962",
        "longitude": "103.6914831",
        "latitude": "1.342017841"
    },
    {
        "name": "Fraser Medical Centre",
        "postal_code": "101078",
        "longitude": "103.8089806",
        "latitude": "1.273387515"
    },
    {
        "name": "Friendship Clinic & Surgery",
        "postal_code": "150001",
        "longitude": "103.8082424",
        "latitude": "1.28645354"
    },
    {
        "name": "Frontier Medical Associates",
        "postal_code": "530982",
        "longitude": "103.8793091",
        "latitude": "1.380850354"
    },
    {
        "name": "Frontier Medical Associates",
        "postal_code": "560163",
        "longitude": "103.8381765",
        "latitude": "1.373548539"
    },
    {
        "name": "Frontier Medical Associates",
        "postal_code": "400304",
        "longitude": "103.9012286",
        "latitude": "1.329552568"
    },
    {
        "name": "Frontier Medical Associates",
        "postal_code": "732899",
        "longitude": "103.7952613",
        "latitude": "1.436569856"
    },
    {
        "name": "Frontier Medical Associates",
        "postal_code": "760654",
        "longitude": "103.8404103",
        "latitude": "1.423053464"
    },
    {
        "name": "Frontier Medical Associates",
        "postal_code": "750105",
        "longitude": "103.8324062",
        "latitude": "1.448858886"
    },
    {
        "name": "Frontier Medical Associates",
        "postal_code": "650440",
        "longitude": "103.7393031",
        "latitude": "1.355723082"
    },
    {
        "name": "Frontier Medical Associates",
        "postal_code": "650451",
        "longitude": "103.7439484",
        "latitude": "1.353038249"
    },
    {
        "name": "Frontier Medical Associates",
        "postal_code": "730691",
        "longitude": "103.8061981",
        "latitude": "1.440629924"
    },
    {
        "name": "Fullerton Health @ Drs Trythall Hoy Davies",
        "postal_code": "238874",
        "longitude": "103.8346761",
        "latitude": "1.302424172"
    },
    {
        "name": "Fullerton Healthcare @ Arc",
        "postal_code": "119963",
        "longitude": "103.8012641",
        "latitude": "1.2739864"
    },
    {
        "name": "Fusion Medical Health Screening & Aesthetic",
        "postal_code": "238880",
        "longitude": "103.830642",
        "latitude": "1.304676287"
    },
    {
        "name": "Faith Clinic (Jurong West)",
        "postal_code": "640762",
        "longitude": "103.6977321",
        "latitude": "1.348743572"
    },
    {
        "name": "Famicare Bedok Clinic Pte Ltd",
        "postal_code": "460158",
        "longitude": "103.9450867",
        "latitude": "1.318735827"
    },
    {
        "name": "Family Doctors At 365",
        "postal_code": "610365",
        "longitude": "103.7201847",
        "latitude": "1.337725927"
    },
    {
        "name": "Family Medicine Clinic Chinatown",
        "postal_code": "059413",
        "longitude": "103.8446971",
        "latitude": "1.284998829"
    },
    {
        "name": "Fernvale Family Clinic",
        "postal_code": "793405",
        "longitude": "103.8734374",
        "latitude": "1.389194667"
    },
    {
        "name": "First Light Family Clinic & Surgery",
        "postal_code": "650272",
        "longitude": "103.7578647",
        "latitude": "1.348790307"
    },
    {
        "name": "Foo And Ong Family Clinic Pte. Ltd.",
        "postal_code": "650151",
        "longitude": "103.7442115",
        "latitude": "1.348747035"
    },
    {
        "name": "Frontier Family Medicine Clinic",
        "postal_code": "129581",
        "longitude": "103.7651475",
        "latitude": "1.314270439"
    },
    {
        "name": "Frontier Medical Associates",
        "postal_code": "644678",
        "longitude": "103.7033954",
        "latitude": "1.344864895"
    },
    {
        "name": "Frontier People'S Clinic",
        "postal_code": "460123",
        "longitude": "103.9373433",
        "latitude": "1.329198686"
    },
    {
        "name": "Fullerton Health @ Ntu",
        "postal_code": "639801",
        "longitude": "103.6826688",
        "latitude": "1.345369917"
    },
    {
        "name": "Fullerton Health @ Ofc",
        "postal_code": "049315",
        "longitude": "103.8519096",
        "latitude": "1.283204751"
    },
    {
        "name": "Fullerton Health @ Watsons (Changi City Point)",
        "postal_code": "486038",
        "longitude": "103.9629461",
        "latitude": "1.334083605"
    },
    {
        "name": "Fullerton Healthcare @ Drs Trythall Hoy Davies",
        "postal_code": "648886",
        "longitude": "103.706685",
        "latitude": "1.339452717"
    },
    {
        "name": "Fullerton Healthcare @ Gethin-Jones",
        "postal_code": "079120",
        "longitude": "103.8452906",
        "latitude": "1.273200062"
    },
    {
        "name": "Fullerton Healthcare @ Mbfc",
        "postal_code": "018981",
        "longitude": "103.8537496",
        "latitude": "1.279469386"
    },
    {
        "name": "Fullerton Healthcare @ Metropolis",
        "postal_code": "138588",
        "longitude": "103.7912375",
        "latitude": "1.306245568"
    },
    {
        "name": "Fullerton Healthcare Screening Centre",
        "postal_code": "238874",
        "longitude": "103.8346761",
        "latitude": "1.302424172"
    },
    {
        "name": "Fusion Medical & Health Screening Centre",
        "postal_code": "138542",
        "longitude": "103.7896077",
        "latitude": "1.299254682"
    },
    {
        "name": "G & H Medical Clinic Pte Ltd",
        "postal_code": "760106",
        "longitude": "103.827452",
        "latitude": "1.431478614"
    },
    {
        "name": "G S Clinic & Surgery",
        "postal_code": "560632",
        "longitude": "103.8414324",
        "latitude": "1.37992682"
    },
    {
        "name": "G.I.F.T Medical Centre",
        "postal_code": "367874",
        "longitude": "103.8788299",
        "latitude": "1.333179334"
    },
    {
        "name": "Garden Clinic",
        "postal_code": "550304",
        "longitude": "103.867773",
        "latitude": "1.353813453"
    },
    {
        "name": "Geylang Bahru Clinic",
        "postal_code": "380016",
        "longitude": "103.8716516",
        "latitude": "1.315431758"
    },
    {
        "name": "Global Care Medical",
        "postal_code": "769687",
        "longitude": "103.8257766",
        "latitude": "1.443818316"
    },
    {
        "name": "Goh Clinic & Surgery",
        "postal_code": "530204",
        "longitude": "103.8849884",
        "latitude": "1.358819115"
    },
    {
        "name": "Hua Mei Clinic, Whampoa",
        "postal_code": "327737",
        "longitude": "103.8572012",
        "latitude": "1.324867493"
    },
    {
        "name": "Huan Clinic",
        "postal_code": "160051",
        "longitude": "103.8420298",
        "latitude": "1.287403008"
    },
    {
        "name": "Hui Clinic + Surgery",
        "postal_code": "560157",
        "longitude": "103.8393951",
        "latitude": "1.375305621"
    },
    {
        "name": "Hwang & Liang Family Clinic & Surgery",
        "postal_code": "520476",
        "longitude": "103.9533594",
        "latitude": "1.360922839"
    },
    {
        "name": "Hamid Family Clinic & Surgery",
        "postal_code": "510156",
        "longitude": "103.9628953",
        "latitude": "1.364083645"
    },
    {
        "name": "Health First Family Clinic",
        "postal_code": "161026",
        "longitude": "103.8255958",
        "latitude": "1.282634377"
    },
    {
        "name": "Healthmatters - The Family Practice",
        "postal_code": "519599",
        "longitude": "103.9554448",
        "latitude": "1.379127179"
    },
    {
        "name": "Healthmed Family Clinic (Bukit Panjang)",
        "postal_code": "670416",
        "longitude": "103.7684541",
        "latitude": "1.383196867"
    },
    {
        "name": "Healthcare Amk Medical Clinic",
        "postal_code": "560157",
        "longitude": "103.8393951",
        "latitude": "1.375305621"
    },
    {
        "name": "Healthcare Hougang Medical Clinic",
        "postal_code": "530311",
        "longitude": "103.8948537",
        "latitude": "1.365667331"
    },
    {
        "name": "Healthlife Family Clinic",
        "postal_code": "651296",
        "longitude": "103.7464092",
        "latitude": "1.344093582"
    },
    {
        "name": "Healthmark Family Clinic (Compassvale)",
        "postal_code": "540263",
        "longitude": "103.8960423",
        "latitude": "1.394848165"
    },
    {
        "name": "Healthmark Family Medicine Clinic",
        "postal_code": "680601",
        "longitude": "103.7449217",
        "latitude": "1.39693363"
    },
    {
        "name": "Healthmark Medical Clinic",
        "postal_code": "820639",
        "longitude": "103.9160547",
        "latitude": "1.399446151"
    },
    {
        "name": "Healthmark Pioneer Mall Clinic",
        "postal_code": "640638",
        "longitude": "103.6971748",
        "latitude": "1.341692392"
    },
    {
        "name": "Healthpath Medical Clinic And Surgery",
        "postal_code": "560338",
        "longitude": "103.848987",
        "latitude": "1.363895702"
    },
    {
        "name": "Healthsprings Medical & Laser Clinic",
        "postal_code": "341105",
        "longitude": "103.8704306",
        "latitude": "1.334006992"
    },
    {
        "name": "Healthsprings Medical Clinic",
        "postal_code": "671524",
        "longitude": "103.7662285",
        "latitude": "1.385405693"
    },
    {
        "name": "Healthway Medical",
        "postal_code": "460218",
        "longitude": "103.9342494",
        "latitude": "1.327492955"
    },
    {
        "name": "Healthway Medical",
        "postal_code": "538766",
        "longitude": "103.8937756",
        "latitude": "1.372494938"
    },
    {
        "name": "Healthway Medical",
        "postal_code": "640690",
        "longitude": "103.70671",
        "latitude": "1.341186885"
    },
    {
        "name": "Healthway Medical",
        "postal_code": "820168",
        "longitude": "103.9130473",
        "latitude": "1.394237197"
    },
    {
        "name": "Healthway Medical",
        "postal_code": "520503",
        "longitude": "103.9451029",
        "latitude": "1.355803356"
    },
    {
        "name": "Healthway Medical",
        "postal_code": "310177",
        "longitude": "103.8488548",
        "latitude": "1.333900341"
    },
    {
        "name": "Healthway Medical",
        "postal_code": "530108",
        "longitude": "103.8900932",
        "latitude": "1.352773933"
    },
    {
        "name": "Healthway Medical",
        "postal_code": "068815",
        "longitude": "103.8490079",
        "latitude": "1.277966724"
    },
    {
        "name": "Healthway Medical",
        "postal_code": "540118",
        "longitude": "103.901841",
        "latitude": "1.385337361"
    },
    {
        "name": "Family Healthcare Clinic & Surgery",
        "postal_code": "550151",
        "longitude": "103.8737783",
        "latitude": "1.36934535"
    },
    {
        "name": "Healthway Medical",
        "postal_code": "730888",
        "longitude": "103.7953144",
        "latitude": "1.437123015"
    },
    {
        "name": "Healthway Medical",
        "postal_code": "524201",
        "longitude": "103.9535865",
        "latitude": "1.352262314"
    },
    {
        "name": "Healthway Medical",
        "postal_code": "760101",
        "longitude": "103.8276677",
        "latitude": "1.430535754"
    },
    {
        "name": "Healthway Medical",
        "postal_code": "650446",
        "longitude": "103.7390846",
        "latitude": "1.350170851"
    },
    {
        "name": "Healthway Medical",
        "postal_code": "328127",
        "longitude": "103.8590854",
        "latitude": "1.317994853"
    },
    {
        "name": "Healthway Medical",
        "postal_code": "760461",
        "longitude": "103.8499728",
        "latitude": "1.428414719"
    },
    {
        "name": "Healthway Medical",
        "postal_code": "540267",
        "longitude": "103.8970466",
        "latitude": "1.383744418"
    },
    {
        "name": "Healthway Medical",
        "postal_code": "307506",
        "longitude": "103.8441607",
        "latitude": "1.32070511"
    },
    {
        "name": "Healthway Medical",
        "postal_code": "120727",
        "longitude": "103.7638177",
        "latitude": "1.304624876"
    },
    {
        "name": "Healthway Medical",
        "postal_code": "540308",
        "longitude": "103.8864267",
        "latitude": "1.389558485"
    },
    {
        "name": "Healthway Medical",
        "postal_code": "640960",
        "longitude": "103.6914596",
        "latitude": "1.341385312"
    },
    {
        "name": "Healthway Medical",
        "postal_code": "680475",
        "longitude": "103.7390155",
        "latitude": "1.377897277"
    },
    {
        "name": "Healthway Medical",
        "postal_code": "560721",
        "longitude": "103.8478995",
        "latitude": "1.372349848"
    },
    {
        "name": "Healthway Medical",
        "postal_code": "670445",
        "longitude": "103.7707683",
        "latitude": "1.383580446"
    },
    {
        "name": "Healthway Medical",
        "postal_code": "520710",
        "longitude": "103.9377306",
        "latitude": "1.358602388"
    },
    {
        "name": "Healthway Medical",
        "postal_code": "120443",
        "longitude": "103.7640104",
        "latitude": "1.314210516"
    },
    {
        "name": "Healthway Medical",
        "postal_code": "757713",
        "longitude": "103.8195021",
        "latitude": "1.448195354"
    },
    {
        "name": "Healthway Medical",
        "postal_code": "650153",
        "longitude": "103.7442765",
        "latitude": "1.347479478"
    },
    {
        "name": "Healthway Medical",
        "postal_code": "730717",
        "longitude": "103.7994942",
        "latitude": "1.44087379"
    },
    {
        "name": "Healthway Medical",
        "postal_code": "560452",
        "longitude": "103.8562008",
        "latitude": "1.368897512"
    },
    {
        "name": "Healthwerkz Medical Centre (Cck)",
        "postal_code": "680225",
        "longitude": "103.7448896",
        "latitude": "1.381090653"
    },
    {
        "name": "Healthwerkz Medical Centre @ Orchard",
        "postal_code": "228210",
        "longitude": "103.8321282",
        "latitude": "1.306547047"
    },
    {
        "name": "Heartland Family Clinic",
        "postal_code": "763333",
        "longitude": "103.8457902",
        "latitude": "1.431889987"
    },
    {
        "name": "Heartlandhealth",
        "postal_code": "320087",
        "longitude": "103.8557356",
        "latitude": "1.323289171"
    },
    {
        "name": "Hill Spring Medical",
        "postal_code": "577552",
        "longitude": "103.8291756",
        "latitude": "1.371547199"
    },
    {
        "name": "Hisemainn Medical Clinic (Bukit Batok)",
        "postal_code": "654289",
        "longitude": "103.7594314",
        "latitude": "1.344170294"
    },
    {
        "name": "Hisemainn Medical Clinic (Jurong West)",
        "postal_code": "640276",
        "longitude": "103.7037253",
        "latitude": "1.35361178"
    },
    {
        "name": "Horizon Medical Centre",
        "postal_code": "574424",
        "longitude": "103.8360536",
        "latitude": "1.351844991"
    },
    {
        "name": "Lifeline Bishan Medical Clinic",
        "postal_code": "570501",
        "longitude": "103.8490773",
        "latitude": "1.348416898"
    },
    {
        "name": "Lifeline Bukit Panjang Medical Clinic",
        "postal_code": "670103",
        "longitude": "103.7685384",
        "latitude": "1.378670709"
    },
    {
        "name": "Lifeline Medical Centre",
        "postal_code": "120710",
        "longitude": "103.7615181",
        "latitude": "1.306289119"
    },
    {
        "name": "Lifeline Medical Group",
        "postal_code": "540118",
        "longitude": "103.901841",
        "latitude": "1.385337361"
    },
    {
        "name": "Lifeline Neighbourhood Medical Clinic",
        "postal_code": "650280",
        "longitude": "103.7570446",
        "latitude": "1.347701478"
    },
    {
        "name": "Lifeline Punggol Medical Clinic Pte Ltd",
        "postal_code": "820198",
        "longitude": "103.9064024",
        "latitude": "1.399462957"
    },
    {
        "name": "Lifeline Yishun Ring Medical Clinic",
        "postal_code": "760846",
        "longitude": "103.8346416",
        "latitude": "1.416786347"
    },
    {
        "name": "Lifelink Sn Clinic & Surgery",
        "postal_code": "550153",
        "longitude": "103.8723123",
        "latitude": "1.369950997"
    },
    {
        "name": "Lily Aw Pasir Ris Family Clinic & Surgery",
        "postal_code": "510446",
        "longitude": "103.9577269",
        "latitude": "1.370306193"
    },
    {
        "name": "Lim Clinic & Surgery",
        "postal_code": "461020",
        "longitude": "103.9228853",
        "latitude": "1.326272713"
    },
    {
        "name": "Lim Clinic & Surgery",
        "postal_code": "310109",
        "longitude": "103.8462025",
        "latitude": "1.341237271"
    },
    {
        "name": "Lim Country Clinic",
        "postal_code": "530208",
        "longitude": "103.8866361",
        "latitude": "1.358696799"
    },
    {
        "name": "Lin & Sons Clinic & Surgery Pte Ltd",
        "postal_code": "680018",
        "longitude": "103.7540714",
        "latitude": "1.378297688"
    },
    {
        "name": "Livewell Medical Family Clinic",
        "postal_code": "329984",
        "longitude": "103.8465544",
        "latitude": "1.326945045"
    },
    {
        "name": "Lo & Lee Clinic & Surgery",
        "postal_code": "530134",
        "longitude": "103.8865094",
        "latitude": "1.350464683"
    },
    {
        "name": "Loh Clinic",
        "postal_code": "380045",
        "longitude": "103.8784427",
        "latitude": "1.317337215"
    },
    {
        "name": "Loi+Wong Clinic & Surgery",
        "postal_code": "640492",
        "longitude": "103.7251805",
        "latitude": "1.349945436"
    },
    {
        "name": "London (Mh) Clinic & Surgery",
        "postal_code": "530104",
        "longitude": "103.8903185",
        "latitude": "1.354784387"
    },
    {
        "name": "Low & Lee Clinic & Surgery",
        "postal_code": "460055",
        "longitude": "103.9190156",
        "latitude": "1.32684847"
    },
    {
        "name": "Low Medical Clinic",
        "postal_code": "330067",
        "longitude": "103.8693362",
        "latitude": "1.321394464"
    },
    {
        "name": "Lum Clinic & Surgery",
        "postal_code": "090109",
        "longitude": "103.8253108",
        "latitude": "1.273929399"
    },
    {
        "name": "Lusumu Family Clinic",
        "postal_code": "460530",
        "longitude": "103.9270203",
        "latitude": "1.33371332"
    },
    {
        "name": "Lakeside Family Medicine Clinic",
        "postal_code": "641518",
        "longitude": "103.7188576",
        "latitude": "1.345138285"
    },
    {
        "name": "Lee Respiratory And Sleep Clinic",
        "postal_code": "574623",
        "longitude": "103.8376012",
        "latitude": "1.341822826"
    },
    {
        "name": "Lian Clinic",
        "postal_code": "730018",
        "longitude": "103.7778612",
        "latitude": "1.443417007"
    },
    {
        "name": "Lifescan Medical Centre",
        "postal_code": "238859",
        "longitude": "103.8358575",
        "latitude": "1.303872309"
    },
    {
        "name": "Lily Neo Clinic Pte Ltd",
        "postal_code": "329565",
        "longitude": "103.8432528",
        "latitude": "1.320475975"
    },
    {
        "name": "Lim Clinic",
        "postal_code": "560446",
        "longitude": "103.8553571",
        "latitude": "1.367760952"
    },
    {
        "name": "Hua Mei Clinic",
        "postal_code": "168730",
        "longitude": "103.8280935",
        "latitude": "1.286299371"
    },
    {
        "name": "I-Health Medical Clinic",
        "postal_code": "330030",
        "longitude": "103.8640498",
        "latitude": "1.319303367"
    },
    {
        "name": "Icon Medical Clinic",
        "postal_code": "640517",
        "longitude": "103.7197243",
        "latitude": "1.345849592"
    },
    {
        "name": "Idoc Clinic (Hong Kah) Pte Ltd",
        "postal_code": "640502",
        "longitude": "103.7183347",
        "latitude": "1.350501276"
    },
    {
        "name": "Intemedical 24 Hour Clinic",
        "postal_code": "560525",
        "longitude": "103.8539767",
        "latitude": "1.372626669"
    },
    {
        "name": "Island Family Clinic (Anchorvale)",
        "postal_code": "540338",
        "longitude": "103.8896539",
        "latitude": "1.39922857"
    },
    {
        "name": "Island Family Clinic (Fernvale)",
        "postal_code": "791473",
        "longitude": "103.8812328",
        "latitude": "1.397859749"
    },
    {
        "name": "Island Family Clinic (Keat Hong)",
        "postal_code": "680803",
        "longitude": "103.7427596",
        "latitude": "1.374155334"
    },
    {
        "name": "Integrated Wellness Clinic",
        "postal_code": "307470",
        "longitude": "103.8447824",
        "latitude": "1.32003005"
    },
    {
        "name": "Island Family Clinic & Endoscopy Centre",
        "postal_code": "540338",
        "longitude": "103.8896539",
        "latitude": "1.39922857"
    },
    {
        "name": "Island Family Clinic (Bedok)",
        "postal_code": "470763",
        "longitude": "103.9348306",
        "latitude": "1.336072095"
    },
    {
        "name": "Island Family Clinic (Bukit Batok)",
        "postal_code": "650447",
        "longitude": "103.7398099",
        "latitude": "1.352696139"
    },
    {
        "name": "Island Family Clinic (Sengkang)",
        "postal_code": "540279",
        "longitude": "103.8930383",
        "latitude": "1.386218355"
    },
    {
        "name": "Island Medical Clinic",
        "postal_code": "307987",
        "longitude": "103.8421548",
        "latitude": "1.319518003"
    },
    {
        "name": "Japan Clinic And Surgery",
        "postal_code": "200802",
        "longitude": "103.8602692",
        "latitude": "1.307645824"
    },
    {
        "name": "Jireh Family Clinic",
        "postal_code": "730883",
        "longitude": "103.790548",
        "latitude": "1.442753332"
    },
    {
        "name": "Jj Clinic & Surgery",
        "postal_code": "560107",
        "longitude": "103.8373814",
        "latitude": "1.371384001"
    },
    {
        "name": "Jo-Lin Family Clinic & Surgery",
        "postal_code": "680533",
        "longitude": "103.7430996",
        "latitude": "1.392073888"
    },
    {
        "name": "Joy Clinic And Surgery",
        "postal_code": "760844",
        "longitude": "103.8354465",
        "latitude": "1.415625174"
    },
    {
        "name": "Joy Family Clinic",
        "postal_code": "470703",
        "longitude": "103.9198931",
        "latitude": "1.337165075"
    },
    {
        "name": "Jubilee Family Physicians",
        "postal_code": "510258",
        "longitude": "103.9646322",
        "latitude": "1.367073575"
    },
    {
        "name": "Jurong East Clinic",
        "postal_code": "600114",
        "longitude": "103.73461",
        "latitude": "1.339213864"
    },
    {
        "name": "Jw Corporation Clinic Pte Ltd",
        "postal_code": "640507",
        "longitude": "103.7184299",
        "latitude": "1.349027089"
    },
    {
        "name": "Jade Medical Clinic Pte Ltd",
        "postal_code": "059818",
        "longitude": "103.8467962",
        "latitude": "1.2889562"
    },
    {
        "name": "Jane & Lee Sembawang Family Clinic",
        "postal_code": "750483",
        "longitude": "103.8155809",
        "latitude": "1.456036997"
    },
    {
        "name": "Jireh Heart Centre",
        "postal_code": "329563",
        "longitude": "103.8442124",
        "latitude": "1.322140054"
    },
    {
        "name": "Joash Family Clinic & Surgery",
        "postal_code": "534767",
        "longitude": "103.8885369",
        "latitude": "1.362981139"
    },
    {
        "name": "Joyhealth Medical Clinic & Surgery",
        "postal_code": "520825",
        "longitude": "103.9327877",
        "latitude": "1.349437509"
    },
    {
        "name": "K L Tay Clinic & Surgery",
        "postal_code": "470632",
        "longitude": "103.9141451",
        "latitude": "1.332050946"
    },
    {
        "name": "K N Chin & Associates Pte Ltd",
        "postal_code": "048621",
        "longitude": "103.8521303",
        "latitude": "1.283855762"
    },
    {
        "name": "K N Chin & Associates Pte Ltd Medical Practice",
        "postal_code": "038983",
        "longitude": "103.8590144",
        "latitude": "1.295931895"
    },
    {
        "name": "K. B. Tan Clinic & Laser Surgery",
        "postal_code": "510625",
        "longitude": "103.9419782",
        "latitude": "1.378602398"
    },
    {
        "name": "K2 Medical Clinic",
        "postal_code": "520248",
        "longitude": "103.9535411",
        "latitude": "1.343593763"
    },
    {
        "name": "Kallang Bahru Family Clinic Pte. Ltd.",
        "postal_code": "330066",
        "longitude": "103.8699146",
        "latitude": "1.320664457"
    },
    {
        "name": "Kang An Clinic Pte Ltd",
        "postal_code": "650644",
        "longitude": "103.7517903",
        "latitude": "1.34866681"
    },
    {
        "name": "Kang Clinic",
        "postal_code": "560532",
        "longitude": "103.8545942",
        "latitude": "1.373808515"
    },
    {
        "name": "Kao & Tan Family Medical Centre & Surgery Pte Ltd",
        "postal_code": "164018",
        "longitude": "103.8267854",
        "latitude": "1.285697429"
    },
    {
        "name": "Karri Family Clinic",
        "postal_code": "521866",
        "longitude": "103.9344779",
        "latitude": "1.355364542"
    },
    {
        "name": "Kcs Medical Centre Pte Ltd",
        "postal_code": "460515",
        "longitude": "103.9299602",
        "latitude": "1.331866565"
    },
    {
        "name": "Keat Hong Family Medicine Clinic",
        "postal_code": "689687",
        "longitude": "103.7449494",
        "latitude": "1.384095872"
    },
    {
        "name": "Kensington Family Clinic",
        "postal_code": "557265",
        "longitude": "103.8661111",
        "latitude": "1.365268179"
    },
    {
        "name": "Keppel Medical Group",
        "postal_code": "090009",
        "longitude": "103.8194085",
        "latitude": "1.277407859"
    },
    {
        "name": "Kho Clinic",
        "postal_code": "460537",
        "longitude": "103.9242365",
        "latitude": "1.331773008"
    },
    {
        "name": "Khoo Clinic & Surgery",
        "postal_code": "534737",
        "longitude": "103.8877878",
        "latitude": "1.362284936"
    },
    {
        "name": "Killiney Medical Clinic",
        "postal_code": "239522",
        "longitude": "103.839551",
        "latitude": "1.298920343"
    },
    {
        "name": "Kim Tian Clinic",
        "postal_code": "160071",
        "longitude": "103.8325036",
        "latitude": "1.284246552"
    },
    {
        "name": "King George'S Medical Clinic Pte Ltd",
        "postal_code": "200803",
        "longitude": "103.8609128",
        "latitude": "1.308365264"
    },
    {
        "name": "Kl Ng Medical Clinic Pte Ltd",
        "postal_code": "150001",
        "longitude": "103.8082424",
        "latitude": "1.28645354"
    },
    {
        "name": "Ko Family Clinic",
        "postal_code": "380018",
        "longitude": "103.8723015",
        "latitude": "1.314803514"
    },
    {
        "name": "Koh Clinic & Surgery",
        "postal_code": "650166",
        "longitude": "103.7428248",
        "latitude": "1.34715255"
    },
    {
        "name": "Koh'S T & T Clinic And Surgery Pte. Ltd.",
        "postal_code": "550237",
        "longitude": "103.8701346",
        "latitude": "1.353811983"
    },
    {
        "name": "Kong Kian Clinic",
        "postal_code": "534869",
        "longitude": "103.8850326",
        "latitude": "1.34010827"
    },
    {
        "name": "Kai Clinic",
        "postal_code": "428920",
        "longitude": "103.9071335",
        "latitude": "1.307636571"
    },
    {
        "name": "Kai Medical Clinic",
        "postal_code": "529284",
        "longitude": "103.9600422",
        "latitude": "1.354364938"
    },
    {
        "name": "Katong Family Clinic Pte Ltd",
        "postal_code": "437050",
        "longitude": "103.8955513",
        "latitude": "1.307802767"
    },
    {
        "name": "Kelinik Maju",
        "postal_code": "400414",
        "longitude": "103.8982207",
        "latitude": "1.318115592"
    },
    {
        "name": "Kenneth Loo Family Clinic",
        "postal_code": "570152",
        "longitude": "103.8546414",
        "latitude": "1.345657203"
    },
    {
        "name": "Kenneth Tan Medical Clinic",
        "postal_code": "820658",
        "longitude": "103.9193527",
        "latitude": "1.399904207"
    },
    {
        "name": "Ki Medical Clinic",
        "postal_code": "560416",
        "longitude": "103.8551037",
        "latitude": "1.364541709"
    },
    {
        "name": "Kin Mun Clinic",
        "postal_code": "310066",
        "longitude": "103.8517784",
        "latitude": "1.335013326"
    },
    {
        "name": "L & H Polyclinic And Surgery",
        "postal_code": "150059",
        "longitude": "103.8143521",
        "latitude": "1.288798006"
    },
    {
        "name": "L & L Family Medicine Clinic",
        "postal_code": "575585",
        "longitude": "103.8364072",
        "latitude": "1.352863734"
    },
    {
        "name": "L'Ving Vine Medical & Wellness Clinic",
        "postal_code": "127371",
        "longitude": "103.7661313",
        "latitude": "1.30369749"
    },
    {
        "name": "Lai Medical Clinic Pte Ltd",
        "postal_code": "650213",
        "longitude": "103.7524969",
        "latitude": "1.346818454"
    },
    {
        "name": "Lan Medical Clinic & Surgery",
        "postal_code": "120308",
        "longitude": "103.7669104",
        "latitude": "1.32105185"
    },
    {
        "name": "Lavender Medical Clinic & Surgery Pte Ltd",
        "postal_code": "200803",
        "longitude": "103.8609128",
        "latitude": "1.308365264"
    },
    {
        "name": "Lc Clinic Medical Surgery Aesthetics",
        "postal_code": "120446",
        "longitude": "103.7649278",
        "latitude": "1.312513057"
    },
    {
        "name": "Lee & Koh Family Clinic",
        "postal_code": "650359",
        "longitude": "103.7512307",
        "latitude": "1.361343704"
    },
    {
        "name": "Lee & Tan Family Clinic And Surgery",
        "postal_code": "370072",
        "longitude": "103.8879439",
        "latitude": "1.324547611"
    },
    {
        "name": "Lee Clinic",
        "postal_code": "427678",
        "longitude": "103.9047702",
        "latitude": "1.306595845"
    },
    {
        "name": "Lee Clinic",
        "postal_code": "460123",
        "longitude": "103.9373433",
        "latitude": "1.329198686"
    },
    {
        "name": "Lee Clinic And Surgery",
        "postal_code": "560505",
        "longitude": "103.8502249",
        "latitude": "1.37485973"
    },
    {
        "name": "Lee Family Clinic Pte. Ltd.",
        "postal_code": "640762",
        "longitude": "103.6977321",
        "latitude": "1.348743572"
    },
    {
        "name": "Leong Clinic",
        "postal_code": "152063",
        "longitude": "103.8153184",
        "latitude": "1.289075068"
    },
    {
        "name": "Ler Clinic & Surgery",
        "postal_code": "520835",
        "longitude": "103.9338631",
        "latitude": "1.351138338"
    },
    {
        "name": "Liang Clinic",
        "postal_code": "455871",
        "longitude": "103.9231856",
        "latitude": "1.312604231"
    },
    {
        "name": "Liew Clinic & Surgery",
        "postal_code": "151116",
        "longitude": "103.8215322",
        "latitude": "1.285134271"
    },
    {
        "name": "Life Family Clinic",
        "postal_code": "560713",
        "longitude": "103.8465163",
        "latitude": "1.371458093"
    },
    {
        "name": "Life Family Clinic",
        "postal_code": "689810",
        "longitude": "103.7443523",
        "latitude": "1.38533511"
    },
    {
        "name": "Life-Link Clinic & Surgery",
        "postal_code": "510446",
        "longitude": "103.9577269",
        "latitude": "1.370306193"
    },
    {
        "name": "Lifecare Family Clinic",
        "postal_code": "671524",
        "longitude": "103.7662285",
        "latitude": "1.385405693"
    },
    {
        "name": "Lifecare Family Clinic & Surgery",
        "postal_code": "760102",
        "longitude": "103.828763",
        "latitude": "1.430618304"
    },
    {
        "name": "Lifecare Family Clinic & Surgery",
        "postal_code": "530106",
        "longitude": "103.8906808",
        "latitude": "1.353702971"
    },
    {
        "name": "Lifecare Medical Centre",
        "postal_code": "370036",
        "longitude": "103.8869308",
        "latitude": "1.329026079"
    },
    {
        "name": "Healthlink Medical Clinic & Surgery",
        "postal_code": "360005",
        "longitude": "103.8798985",
        "latitude": "1.33372866"
    },
    {
        "name": "Healthmark Clinic (Pasir Ris)",
        "postal_code": "510735",
        "longitude": "103.9365746",
        "latitude": "1.379668121"
    },
    {
        "name": "Healthplus Clinic & Surgery",
        "postal_code": "470631",
        "longitude": "103.9149418",
        "latitude": "1.332959235"
    },
    {
        "name": "Healthplus Family Clinic & Surgery",
        "postal_code": "101078",
        "longitude": "103.8089806",
        "latitude": "1.273387515"
    },
    {
        "name": "Healthpoint Family Clinic & Surgery Pte Ltd",
        "postal_code": "142048",
        "longitude": "103.7976262",
        "latitude": "1.300789009"
    },
    {
        "name": "Healthsprings Medical Associates",
        "postal_code": "238881",
        "longitude": "103.8307226",
        "latitude": "1.305087227"
    },
    {
        "name": "Healthway Medical",
        "postal_code": "760417",
        "longitude": "103.8463291",
        "latitude": "1.424385068"
    },
    {
        "name": "Healthway Medical",
        "postal_code": "410110",
        "longitude": "103.9108536",
        "latitude": "1.323653453"
    },
    {
        "name": "Healthway Medical",
        "postal_code": "560330",
        "longitude": "103.8510307",
        "latitude": "1.362431864"
    },
    {
        "name": "Healthway Medical",
        "postal_code": "750406",
        "longitude": "103.8169776",
        "latitude": "1.452929806"
    },
    {
        "name": "Healthway Medical",
        "postal_code": "608532",
        "longitude": "103.7427664",
        "latitude": "1.334157546"
    },
    {
        "name": "Healthway Medical",
        "postal_code": "760748",
        "longitude": "103.8334505",
        "latitude": "1.427518982"
    },
    {
        "name": "Healthway Medical Clinic",
        "postal_code": "680534",
        "longitude": "103.743191",
        "latitude": "1.392242406"
    },
    {
        "name": "Healthwerkz Medical Centre @ Semb Mrt",
        "postal_code": "759775",
        "longitude": "103.8201395",
        "latitude": "1.449026685"
    },
    {
        "name": "Healthwise Medical Clinic & Surgery",
        "postal_code": "390041",
        "longitude": "103.8847638",
        "latitude": "1.307827368"
    },
    {
        "name": "Hk Family Clinic & Surgery Pte Ltd",
        "postal_code": "560410",
        "longitude": "103.854645",
        "latitude": "1.362715419"
    },
    {
        "name": "Hl Clinic Pte Ltd",
        "postal_code": "090009",
        "longitude": "103.8194085",
        "latitude": "1.277407859"
    },
    {
        "name": "Hl Family Clinic & Surgery Pte Ltd",
        "postal_code": "160111",
        "longitude": "103.8261859",
        "latitude": "1.280321136"
    },
    {
        "name": "Hl Family Clinic & Surgery(Bedok) Pte Ltd",
        "postal_code": "460089",
        "longitude": "103.9380513",
        "latitude": "1.332334683"
    },
    {
        "name": "Ho Medical Centre Pte Ltd",
        "postal_code": "120352",
        "longitude": "103.7713506",
        "latitude": "1.314278603"
    },
    {
        "name": "Ho Medical Clinic",
        "postal_code": "058357",
        "longitude": "103.8439801",
        "latitude": "1.285770099"
    },
    {
        "name": "Ho Tong Clinic",
        "postal_code": "370035",
        "longitude": "103.8860103",
        "latitude": "1.329158997"
    },
    {
        "name": "Hong Associates Clinic",
        "postal_code": "160111",
        "longitude": "103.8261859",
        "latitude": "1.280321136"
    },
    {
        "name": "Hong Family Clinic",
        "postal_code": "520282",
        "longitude": "103.9524368",
        "latitude": "1.347754099"
    },
    {
        "name": "Hong'S Clinic People'S Park Centre",
        "postal_code": "058357",
        "longitude": "103.8439801",
        "latitude": "1.285770099"
    },
    {
        "name": "Hope Family Clinic And Surgery",
        "postal_code": "730883",
        "longitude": "103.790548",
        "latitude": "1.442753332"
    },
    {
        "name": "Hougang Family Medicine Clinic",
        "postal_code": "538776",
        "longitude": "103.8829319",
        "latitude": "1.375322538"
    },
    {
        "name": "Princeton Family Clinic Pte Ltd.",
        "postal_code": "670445",
        "longitude": "103.7707683",
        "latitude": "1.383580446"
    },
    {
        "name": "Pro-Life Medical Associates",
        "postal_code": "680253",
        "longitude": "103.7443936",
        "latitude": "1.377366074"
    },
    {
        "name": "Procross Medical Centre",
        "postal_code": "530449",
        "longitude": "103.8951536",
        "latitude": "1.378780982"
    },
    {
        "name": "Prohealth 24-Hour Medical Clinic",
        "postal_code": "671259",
        "longitude": "103.7733101",
        "latitude": "1.377042931"
    },
    {
        "name": "Prohealth Medical Group @ Buangkok Pte Ltd",
        "postal_code": "544275",
        "longitude": "103.8937135",
        "latitude": "1.382904958"
    },
    {
        "name": "Prohealth Medical Group @Lrt Fernvale Pte Ltd",
        "postal_code": "790437",
        "longitude": "103.8763304",
        "latitude": "1.392550406"
    },
    {
        "name": "Providence Clinic @ Balestier",
        "postal_code": "329802",
        "longitude": "103.8503954",
        "latitude": "1.325724726"
    },
    {
        "name": "Psalms Family Clinic",
        "postal_code": "760293",
        "longitude": "103.8376052",
        "latitude": "1.436114254"
    },
    {
        "name": "Public Medical Clinic & Surgery",
        "postal_code": "760664",
        "longitude": "103.8410746",
        "latitude": "1.420199866"
    },
    {
        "name": "Pulse Clinic Pte Ltd",
        "postal_code": "160038",
        "longitude": "103.82729",
        "latitude": "1.288553931"
    },
    {
        "name": "Punggol Family Clinic Pte. Ltd.",
        "postal_code": "820322",
        "longitude": "103.8975014",
        "latitude": "1.411247035"
    },
    {
        "name": "Pacific Medical Clinic",
        "postal_code": "238859",
        "longitude": "103.8358575",
        "latitude": "1.303872309"
    },
    {
        "name": "Pancare Medical Clinic",
        "postal_code": "560133",
        "longitude": "103.8426442",
        "latitude": "1.371139686"
    },
    {
        "name": "Panhealth Family Clinic",
        "postal_code": "822312",
        "longitude": "103.9006147",
        "latitude": "1.411353096"
    },
    {
        "name": "Pariqua Clinic",
        "postal_code": "330047",
        "longitude": "103.866812",
        "latitude": "1.323397412"
    },
    {
        "name": "Parklane Medical Centre",
        "postal_code": "188307",
        "longitude": "103.8494486",
        "latitude": "1.300645302"
    },
    {
        "name": "Parkway Shenton Medical Group",
        "postal_code": "120451",
        "longitude": "103.7654768",
        "latitude": "1.312482985"
    },
    {
        "name": "Parkway Shenton Medical Group",
        "postal_code": "408600",
        "longitude": "103.8948949",
        "latitude": "1.318996669"
    },
    {
        "name": "Parkway Shenton Medical Group",
        "postal_code": "530205",
        "longitude": "103.8851674",
        "latitude": "1.359541773"
    },
    {
        "name": "Parkway Shenton Medical Group",
        "postal_code": "486028",
        "longitude": "103.9665714",
        "latitude": "1.334835405"
    },
    {
        "name": "Parkway Shenton Medical Group",
        "postal_code": "820681",
        "longitude": "103.9132151",
        "latitude": "1.402780157"
    },
    {
        "name": "Parkwayhealth Primary Care Network",
        "postal_code": "049317",
        "longitude": "103.8520689",
        "latitude": "1.283619584"
    },
    {
        "name": "Parsons Medical Clinic Pte Ltd",
        "postal_code": "760779",
        "longitude": "103.8332613",
        "latitude": "1.422144614"
    },
    {
        "name": "Peace Family Clinic (Wl832)",
        "postal_code": "730832",
        "longitude": "103.7907615",
        "latitude": "1.439669377"
    },
    {
        "name": "Peak Medical Clinic & Surgery",
        "postal_code": "522601",
        "longitude": "103.9375108",
        "latitude": "1.360882775"
    },
    {
        "name": "Phoenix Medical Group",
        "postal_code": "807011",
        "longitude": "103.869136",
        "latitude": "1.387395394"
    },
    {
        "name": "Phoenix Medical Group (Hillview)",
        "postal_code": "667979",
        "longitude": "103.7641729",
        "latitude": "1.362674508"
    },
    {
        "name": "New Town Clinic Pte Ltd",
        "postal_code": "461059",
        "longitude": "103.9406956",
        "latitude": "1.324058986"
    },
    {
        "name": "Northeast Medical Group",
        "postal_code": "529888",
        "longitude": "103.9533772",
        "latitude": "1.343197079"
    },
    {
        "name": "Northeast Medical Group",
        "postal_code": "529538",
        "longitude": "103.9451446",
        "latitude": "1.353301677"
    },
    {
        "name": "Northeast Medical Group",
        "postal_code": "659958",
        "longitude": "103.7495665",
        "latitude": "1.349033312"
    },
    {
        "name": "Northeast Medical Group",
        "postal_code": "270025",
        "longitude": "103.7862552",
        "latitude": "1.308147469"
    },
    {
        "name": "Norwood Medical Clinic",
        "postal_code": "735785",
        "longitude": "103.8054876",
        "latitude": "1.446804139"
    },
    {
        "name": "Novena Medical Center Family Clinic",
        "postal_code": "307506",
        "longitude": "103.8441607",
        "latitude": "1.32070511"
    },
    {
        "name": "Nuhealth Medical Centre",
        "postal_code": "677899",
        "longitude": "103.7601398",
        "latitude": "1.380322399"
    },
    {
        "name": "Nyam Family Clinic",
        "postal_code": "469452",
        "longitude": "103.9485827",
        "latitude": "1.331561904"
    },
    {
        "name": "O2 Medical Clinic",
        "postal_code": "514527",
        "longitude": "103.9479224",
        "latitude": "1.369686255"
    },
    {
        "name": "Oc Medical Raffles Place",
        "postal_code": "048616",
        "longitude": "103.8510725",
        "latitude": "1.284349546"
    },
    {
        "name": "Oei & Kho Clinic And Surgery",
        "postal_code": "310018",
        "longitude": "103.8567896",
        "latitude": "1.335757236"
    },
    {
        "name": "Ogl Medical Centers",
        "postal_code": "307506",
        "longitude": "103.8441607",
        "latitude": "1.32070511"
    },
    {
        "name": "Ogl Medical Jurong East",
        "postal_code": "600353",
        "longitude": "103.730588",
        "latitude": "1.344380713"
    },
    {
        "name": "Ogl Medical Queenstown",
        "postal_code": "140158",
        "longitude": "103.8028067",
        "latitude": "1.292740384"
    },
    {
        "name": "Onecare Clinic Aljunied Mrt",
        "postal_code": "388310",
        "longitude": "103.882964",
        "latitude": "1.316441188"
    },
    {
        "name": "Onecare Clinic Amk Cheng San Pte Ltd",
        "postal_code": "560531",
        "longitude": "103.8543826",
        "latitude": "1.37332713"
    },
    {
        "name": "Onecare Clinic Bedok Mrt",
        "postal_code": "467347",
        "longitude": "103.9299537",
        "latitude": "1.323981849"
    },
    {
        "name": "Onecare Clinic Clementi",
        "postal_code": "120449",
        "longitude": "103.76481",
        "latitude": "1.313615679"
    },
    {
        "name": "Onecare Clinic Fernvale",
        "postal_code": "790417",
        "longitude": "103.8798746",
        "latitude": "1.39158623"
    },
    {
        "name": "Onecare Clinic Hougang Ave 8",
        "postal_code": "530681",
        "longitude": "103.8856792",
        "latitude": "1.372978403"
    },
    {
        "name": "Onecare Clinic Punggol Plaza",
        "postal_code": "820168",
        "longitude": "103.9130473",
        "latitude": "1.394237197"
    },
    {
        "name": "Onecare Clinic Tampines Mrt",
        "postal_code": "529538",
        "longitude": "103.9451446",
        "latitude": "1.353301677"
    },
    {
        "name": "Onelife Family Clinic",
        "postal_code": "680534",
        "longitude": "103.743191",
        "latitude": "1.392242406"
    },
    {
        "name": "Ong'S Clinic",
        "postal_code": "189649",
        "longitude": "103.8527002",
        "latitude": "1.302243271"
    },
    {
        "name": "Orchard Group Clinic",
        "postal_code": "238882",
        "longitude": "103.8299848",
        "latitude": "1.305506108"
    },
    {
        "name": "Our Family Clinic & Surgery Pte Ltd",
        "postal_code": "431008",
        "longitude": "103.8831797",
        "latitude": "1.30263934"
    },
    {
        "name": "Our Family Clinic + Surgery",
        "postal_code": "510221",
        "longitude": "103.9616147",
        "latitude": "1.370194735"
    },
    {
        "name": "Physicians Practice Family Medical Center",
        "postal_code": "307591",
        "longitude": "103.8436114",
        "latitude": "1.31719451"
    },
    {
        "name": "Pidemco Medical Centre Pte Ltd",
        "postal_code": "760156",
        "longitude": "103.8335678",
        "latitude": "1.431887619"
    },
    {
        "name": "Lim Clinic",
        "postal_code": "419773",
        "longitude": "103.9071179",
        "latitude": "1.318198774"
    },
    {
        "name": "Little Cross Family Clinic Pte Ltd",
        "postal_code": "520929",
        "longitude": "103.939614",
        "latitude": "1.346391725"
    },
    {
        "name": "M Lam Clinic",
        "postal_code": "389649",
        "longitude": "103.8904698",
        "latitude": "1.31497432"
    },
    {
        "name": "M Medical Clinic",
        "postal_code": "210681",
        "longitude": "103.8552727",
        "latitude": "1.313720673"
    },
    {
        "name": "Macpherson Medical Clinic",
        "postal_code": "370078",
        "longitude": "103.8852203",
        "latitude": "1.327880572"
    },
    {
        "name": "Mandarin Medical Centre",
        "postal_code": "598586",
        "longitude": "103.7739039",
        "latitude": "1.34056696"
    },
    {
        "name": "Manhattan Medical Centre",
        "postal_code": "169876",
        "longitude": "103.8408132",
        "latitude": "1.287034438"
    },
    {
        "name": "Marina Medical Centre (Tiong Bahru)",
        "postal_code": "160078",
        "longitude": "103.8310145",
        "latitude": "1.283326113"
    },
    {
        "name": "Marine Parade Clinic",
        "postal_code": "440059",
        "longitude": "103.9147218",
        "latitude": "1.305859666"
    },
    {
        "name": "Marine Terrace Family Clinic",
        "postal_code": "440057",
        "longitude": "103.9154848",
        "latitude": "1.306512573"
    },
    {
        "name": "May Medical Clinic & Surgery Pte Ltd",
        "postal_code": "270041",
        "longitude": "103.7934635",
        "latitude": "1.307620049"
    },
    {
        "name": "Mayfair Medical Clinic",
        "postal_code": "730182",
        "longitude": "103.7760233",
        "latitude": "1.435158951"
    },
    {
        "name": "Md International Medical Centre",
        "postal_code": "257720",
        "longitude": "103.8191356",
        "latitude": "1.308472041"
    },
    {
        "name": "Meden Clinic & Surgery",
        "postal_code": "150059",
        "longitude": "103.8143521",
        "latitude": "1.288798006"
    },
    {
        "name": "Medi Clinic",
        "postal_code": "163002",
        "longitude": "103.8396145",
        "latitude": "1.288579699"
    },
    {
        "name": "Medica Clinic",
        "postal_code": "530681",
        "longitude": "103.8856792",
        "latitude": "1.372978403"
    },
    {
        "name": "Medical Aesthetics",
        "postal_code": "530681",
        "longitude": "103.8856792",
        "latitude": "1.372978403"
    },
    {
        "name": "Medical Aesthetics",
        "postal_code": "120450",
        "longitude": "103.7654763",
        "latitude": "1.313538861"
    },
    {
        "name": "Medical And Dental Centre @ Commonwealth",
        "postal_code": "141088",
        "longitude": "103.7980217",
        "latitude": "1.302038022"
    },
    {
        "name": "Medicare Associates",
        "postal_code": "520482",
        "longitude": "103.9530009",
        "latitude": "1.361630492"
    },
    {
        "name": "Medico Clinic & Surgery",
        "postal_code": "600249",
        "longitude": "103.7392597",
        "latitude": "1.342562423"
    },
    {
        "name": "Medihealth Bishan Clinic & Surgery",
        "postal_code": "570121",
        "longitude": "103.8510492",
        "latitude": "1.347186678"
    },
    {
        "name": "Medilife Clinic & Surgery",
        "postal_code": "520474",
        "longitude": "103.9527876",
        "latitude": "1.359872992"
    },
    {
        "name": "Mediline Wei Min Clinic",
        "postal_code": "440081",
        "longitude": "103.9070732",
        "latitude": "1.302641286"
    },
    {
        "name": "Medina Medical Centre",
        "postal_code": "520479",
        "longitude": "103.9535674",
        "latitude": "1.361433563"
    },
    {
        "name": "Medipoint Medical Centre (Ponggol Branch)",
        "postal_code": "530401",
        "longitude": "103.8969942",
        "latitude": "1.374843395"
    },
    {
        "name": "Medipoint Medical Centre (Woodlands Branch)",
        "postal_code": "730548",
        "longitude": "103.7939274",
        "latitude": "1.430897146"
    },
    {
        "name": "Medivene Clinic & Surgery",
        "postal_code": "540330",
        "longitude": "103.8892468",
        "latitude": "1.396849799"
    },
    {
        "name": "Medlife Clinic & Surgery",
        "postal_code": "530684",
        "longitude": "103.8868985",
        "latitude": "1.373958405"
    },
    {
        "name": "Meenara Clinic",
        "postal_code": "560422",
        "longitude": "103.8518739",
        "latitude": "1.367999888"
    },
    {
        "name": "Mei Ling Clinic",
        "postal_code": "140158",
        "longitude": "103.8028067",
        "latitude": "1.292740384"
    },
    {
        "name": "Mei Ling Clinic (Toa Payoh)",
        "postal_code": "310500",
        "longitude": "103.8470923",
        "latitude": "1.332855429"
    },
    {
        "name": "Meridian Medical And Dental Centre",
        "postal_code": "530327",
        "longitude": "103.8959876",
        "latitude": "1.368306832"
    },
    {
        "name": "Mhc Family Clinic (Ang Mo Kio)",
        "postal_code": "560452",
        "longitude": "103.8562008",
        "latitude": "1.368897512"
    },
    {
        "name": "Milford Medical Group",
        "postal_code": "550237",
        "longitude": "103.8701346",
        "latitude": "1.353811983"
    },
    {
        "name": "Millennium Medical Group",
        "postal_code": "730849",
        "longitude": "103.7920656",
        "latitude": "1.441310594"
    },
    {
        "name": "Millennium Medical Group",
        "postal_code": "680533",
        "longitude": "103.7430996",
        "latitude": "1.392073888"
    },
    {
        "name": "Minmed Clinic (Haig Road)",
        "postal_code": "438737",
        "longitude": "103.8957319",
        "latitude": "1.313216537"
    },
    {
        "name": "Minmed Clinic (Pasir Ris)",
        "postal_code": "518457",
        "longitude": "103.9497157",
        "latitude": "1.372449817"
    },
    {
        "name": "Minmed Clinic (Punggol)",
        "postal_code": "828761",
        "longitude": "103.9021057",
        "latitude": "1.406484621"
    },
    {
        "name": "Minmed Clinic (Yishun)",
        "postal_code": "768019",
        "longitude": "103.8361777",
        "latitude": "1.42790289"
    },
    {
        "name": "Mint Medical Centre (Funan)",
        "postal_code": "179105",
        "longitude": "103.8499898",
        "latitude": "1.291347597"
    },
    {
        "name": "Mission Medical Clinic",
        "postal_code": "534649",
        "longitude": "103.879281",
        "latitude": "1.354508683"
    },
    {
        "name": "Mobiledoctor Clinic",
        "postal_code": "048422",
        "longitude": "103.8474697",
        "latitude": "1.283745763"
    },
    {
        "name": "Mutual Healthcare Medical Clinic",
        "postal_code": "542319",
        "longitude": "103.8904664",
        "latitude": "1.391397226"
    },
    {
        "name": "Mutual Healthcare Medical Clinic",
        "postal_code": "821106",
        "longitude": "103.9083441",
        "latitude": "1.39660486"
    },
    {
        "name": "My Doctor'S Place Pte Ltd",
        "postal_code": "460218",
        "longitude": "103.9342494",
        "latitude": "1.327492955"
    },
    {
        "name": "My Family Clinic (Anchorvale)",
        "postal_code": "541326",
        "longitude": "103.8880001",
        "latitude": "1.394914173"
    },
    {
        "name": "My Family Clinic (Choa Chu Kang)",
        "postal_code": "680475",
        "longitude": "103.7390155",
        "latitude": "1.377897277"
    },
    {
        "name": "My Family Clinic (Clementi 325) Pte Ltd",
        "postal_code": "120325",
        "longitude": "103.7668174",
        "latitude": "1.315096685"
    },
    {
        "name": "My Family Clinic (Segar)",
        "postal_code": "670485",
        "longitude": "103.7713126",
        "latitude": "1.388681324"
    },
    {
        "name": "My Family Clinic (St George)",
        "postal_code": "328023",
        "longitude": "103.8632677",
        "latitude": "1.322416771"
    },
    {
        "name": "My Family Clinic (Woodlands Glen)",
        "postal_code": "730573",
        "longitude": "103.7985076",
        "latitude": "1.431098072"
    },
    {
        "name": "My Family Clinic (Woodlands)",
        "postal_code": "730768",
        "longitude": "103.798141",
        "latitude": "1.445622907"
    },
    {
        "name": "Mydoctor@Admiralty Pte Ltd",
        "postal_code": "730693",
        "longitude": "103.803765",
        "latitude": "1.43808788"
    },
    {
        "name": "Myhealth Medical Centre",
        "postal_code": "120501",
        "longitude": "103.7588644",
        "latitude": "1.311295663"
    },
    {
        "name": "Make-Well Family Clinic & Surgery",
        "postal_code": "310070",
        "longitude": "103.8523333",
        "latitude": "1.334448749"
    },
    {
        "name": "Mary Medical Clinic And Surgery",
        "postal_code": "600252",
        "longitude": "103.7381453",
        "latitude": "1.343026442"
    },
    {
        "name": "Mayfair Medical Clinic (Yishun Chong Pang)",
        "postal_code": "760103",
        "longitude": "103.8288928",
        "latitude": "1.431369349"
    },
    {
        "name": "Medi Healthcare Clinic (Punggol)",
        "postal_code": "820218",
        "longitude": "103.895387",
        "latitude": "1.403227125"
    },
    {
        "name": "Medic Surgical & Laser Clinic",
        "postal_code": "082001",
        "longitude": "103.8424336",
        "latitude": "1.275687028"
    },
    {
        "name": "Medivale Medical Clinic",
        "postal_code": "760236",
        "longitude": "103.8389989",
        "latitude": "1.43416808"
    },
    {
        "name": "Mediview Clinic And Surgery",
        "postal_code": "310150",
        "longitude": "103.8445162",
        "latitude": "1.333785196"
    },
    {
        "name": "Meridian Medical Centre",
        "postal_code": "100108",
        "longitude": "103.8102926",
        "latitude": "1.280844694"
    },
    {
        "name": "Minmed Clinic (Jurong East)",
        "postal_code": "608549",
        "longitude": "103.7432787",
        "latitude": "1.333293345"
    },
    {
        "name": "Minmed Clinic (Sengkang)",
        "postal_code": "545078",
        "longitude": "103.8950705",
        "latitude": "1.392053141"
    },
    {
        "name": "Minmed Health Screeners",
        "postal_code": "238859",
        "longitude": "103.8358575",
        "latitude": "1.303872309"
    },
    {
        "name": "Mint Medical Centre",
        "postal_code": "098633",
        "longitude": "103.8191393",
        "latitude": "1.26477807"
    },
    {
        "name": "Mission (Bukit Batok) Medical Clinic",
        "postal_code": "651395",
        "longitude": "103.751896",
        "latitude": "1.363938215"
    },
    {
        "name": "Mission (Hougang) Medical Clinic",
        "postal_code": "530356",
        "longitude": "103.8988131",
        "latitude": "1.372593142"
    },
    {
        "name": "Mission Cross Family Clinic",
        "postal_code": "760348",
        "longitude": "103.8429302",
        "latitude": "1.426624884"
    },
    {
        "name": "Mount Alvernia Outreach Medical Clinic",
        "postal_code": "159053",
        "longitude": "103.8148181",
        "latitude": "1.287366041"
    },
    {
        "name": "Mount Alvernia Outreach Medical Clinic",
        "postal_code": "319264",
        "longitude": "103.8569857",
        "latitude": "1.340081732"
    },
    {
        "name": "Mutual Healthcare Medical Clinic",
        "postal_code": "541205",
        "longitude": "103.8969667",
        "latitude": "1.386039984"
    },
    {
        "name": "My Family Clinic (Angsana Breeze @ Yishun)",
        "postal_code": "760507",
        "longitude": "103.8398278",
        "latitude": "1.415174131"
    },
    {
        "name": "My Family Clinic (Clementi)",
        "postal_code": "121420",
        "longitude": "103.7686577",
        "latitude": "1.309791021"
    },
    {
        "name": "My Family Clinic (Hougang Central)",
        "postal_code": "530804",
        "longitude": "103.8944737",
        "latitude": "1.371151281"
    },
    {
        "name": "My Family Clinic (Pioneer)",
        "postal_code": "640638",
        "longitude": "103.6971748",
        "latitude": "1.341692392"
    },
    {
        "name": "My Family Clinic (Punggol Central)",
        "postal_code": "820301",
        "longitude": "103.906138",
        "latitude": "1.403719397"
    },
    {
        "name": "My Family Clinic (Rivervale)",
        "postal_code": "545082",
        "longitude": "103.9044837",
        "latitude": "1.39250411"
    },
    {
        "name": "My Family Clinic (Senja)",
        "postal_code": "670628",
        "longitude": "103.7604106",
        "latitude": "1.385128674"
    },
    {
        "name": "My Family Clinic (Tanglin Halt)",
        "postal_code": "140462",
        "longitude": "103.7982276",
        "latitude": "1.299961994"
    },
    {
        "name": "My Family Clinic? (Toa Payoh Central)",
        "postal_code": "314079",
        "longitude": "103.8491655",
        "latitude": "1.334640843"
    },
    {
        "name": "My Doctor @ Lakeside",
        "postal_code": "649845",
        "longitude": "103.7209491",
        "latitude": "1.344259115"
    },
    {
        "name": "N B Tham Clinic Pte Ltd",
        "postal_code": "327718",
        "longitude": "103.8533672",
        "latitude": "1.322490446"
    },
    {
        "name": "Nanyang Centre Clinic",
        "postal_code": "640959",
        "longitude": "103.6907217",
        "latitude": "1.341481236"
    },
    {
        "name": "National Clinic",
        "postal_code": "120352",
        "longitude": "103.7713506",
        "latitude": "1.314278603"
    },
    {
        "name": "Ncs Medical Clinic",
        "postal_code": "569141",
        "longitude": "103.8440381",
        "latitude": "1.387891289"
    },
    {
        "name": "Neecare Medical Centre",
        "postal_code": "650371",
        "longitude": "103.7506946",
        "latitude": "1.359259409"
    },
    {
        "name": "Neighbourhood Medical Clinic",
        "postal_code": "530683",
        "longitude": "103.8863678",
        "latitude": "1.373312701"
    },
    {
        "name": "Neo Clinic  & Surgery",
        "postal_code": "670257",
        "longitude": "103.7732123",
        "latitude": "1.378508736"
    },
    {
        "name": "Neo Medical Centre",
        "postal_code": "350120",
        "longitude": "103.863388",
        "latitude": "1.335453533"
    },
    {
        "name": "Neoh & Ong Medical Clinic",
        "postal_code": "401002",
        "longitude": "103.9031935",
        "latitude": "1.320201105"
    },
    {
        "name": "New Health Family Clinic Pte Ltd",
        "postal_code": "100108",
        "longitude": "103.8102926",
        "latitude": "1.280844694"
    },
    {
        "name": "New Town Clinic",
        "postal_code": "380011",
        "longitude": "103.870914",
        "latitude": "1.314239371"
    },
    {
        "name": "Newcastle Clinic",
        "postal_code": "238881",
        "longitude": "103.8307226",
        "latitude": "1.305087227"
    },
    {
        "name": "Newest Medical And Laser Clinic Pte Ltd",
        "postal_code": "128020",
        "longitude": "103.7574513",
        "latitude": "1.316413219"
    },
    {
        "name": "Newlife Family Clinic & Surgery",
        "postal_code": "600061",
        "longitude": "103.7382928",
        "latitude": "1.322136363"
    },
    {
        "name": "Northeast Medical Group",
        "postal_code": "460531",
        "longitude": "103.9261531",
        "latitude": "1.333129919"
    },
    {
        "name": "Northeast Medical Group",
        "postal_code": "545062",
        "longitude": "103.8955082",
        "latitude": "1.391746133"
    },
    {
        "name": "Northeast Medical Group",
        "postal_code": "048980",
        "longitude": "103.8508624",
        "latitude": "1.283949057"
    },
    {
        "name": "Northeast Medical Group",
        "postal_code": "390039",
        "longitude": "103.8850923",
        "latitude": "1.307820603"
    },
    {
        "name": "Northeast Medical Group",
        "postal_code": "569811",
        "longitude": "103.8495581",
        "latitude": "1.36993285"
    },
    {
        "name": "Northland Family Clinic & Surgery",
        "postal_code": "760640",
        "longitude": "103.8388065",
        "latitude": "1.421061805"
    },
    {
        "name": "Novo Vita Clinic And Surgery",
        "postal_code": "160131",
        "longitude": "103.8281784",
        "latitude": "1.280189419"
    },
    {
        "name": "Ntuc Health Family Medicine Clinic",
        "postal_code": "550264",
        "longitude": "103.8721031",
        "latitude": "1.352275199"
    },
    {
        "name": "Nuffield Medical Siglap",
        "postal_code": "459108",
        "longitude": "103.9244498",
        "latitude": "1.312059282"
    },
    {
        "name": "Nutramed Clinic",
        "postal_code": "239693",
        "longitude": "103.8373592",
        "latitude": "1.301398788"
    },
    {
        "name": "Neptune Healthcare Medical & Surgery",
        "postal_code": "520328",
        "longitude": "103.9582875",
        "latitude": "1.353166175"
    },
    {
        "name": "Healthway Medical",
        "postal_code": "510625",
        "longitude": "103.9419782",
        "latitude": "1.378602398"
    },
    {
        "name": "Healthway Medical",
        "postal_code": "322101",
        "longitude": "103.8610875",
        "latitude": "1.31942539"
    },
    {
        "name": "One Medical Clinic",
        "postal_code": "640728",
        "longitude": "103.6976983",
        "latitude": "1.34609844"
    },
    {
        "name": "Onecare Clinic Boon Lay",
        "postal_code": "640221",
        "longitude": "103.7124293",
        "latitude": "1.346348197"
    },
    {
        "name": "Onecare Clinic Canberra",
        "postal_code": "750105",
        "longitude": "103.8324062",
        "latitude": "1.448858886"
    },
    {
        "name": "Onecare Clinic Woodlands",
        "postal_code": "738623",
        "longitude": "103.7798819",
        "latitude": "1.433543181"
    },
    {
        "name": "Onedoctors Family Clinic",
        "postal_code": "560710",
        "longitude": "103.8481868",
        "latitude": "1.371045831"
    },
    {
        "name": "Onedoctors Family Clinic",
        "postal_code": "278982",
        "longitude": "103.795582",
        "latitude": "1.311330385"
    },
    {
        "name": "Onedoctors Family Clinic",
        "postal_code": "760846",
        "longitude": "103.8346416",
        "latitude": "1.416786347"
    },
    {
        "name": "Onedoctors Family Clinic",
        "postal_code": "828761",
        "longitude": "103.9021057",
        "latitude": "1.406484621"
    },
    {
        "name": "Onedoctors Medical Centre",
        "postal_code": "556083",
        "longitude": "103.8722961",
        "latitude": "1.350769352"
    },
    {
        "name": "Onecare Clinic Bukit Batok",
        "postal_code": "650630",
        "longitude": "103.7499149",
        "latitude": "1.350087718"
    },
    {
        "name": "Onecare Clinic Bukit Gombak Mrt",
        "postal_code": "659083",
        "longitude": "103.7518838",
        "latitude": "1.358712162"
    },
    {
        "name": "Onecare Clinic Bukit Panjang",
        "postal_code": "670547",
        "longitude": "103.7695754",
        "latitude": "1.388240217"
    },
    {
        "name": "Onecare Clinic Choa Chu Kang",
        "postal_code": "680810",
        "longitude": "103.7461609",
        "latitude": "1.374054618"
    },
    {
        "name": "Onecare Clinic Hougang",
        "postal_code": "530104",
        "longitude": "103.8903185",
        "latitude": "1.354784387"
    },
    {
        "name": "Onecare Clinic Loyang",
        "postal_code": "510258",
        "longitude": "103.9646322",
        "latitude": "1.367073575"
    },
    {
        "name": "Onecare Clinic Marine Parade",
        "postal_code": "440081",
        "longitude": "103.9070732",
        "latitude": "1.302641286"
    },
    {
        "name": "Onecare Clinic Tampines",
        "postal_code": "520827",
        "longitude": "103.9337192",
        "latitude": "1.349721495"
    },
    {
        "name": "Onecare Clinic Tiong Bahru",
        "postal_code": "161011",
        "longitude": "103.8287899",
        "latitude": "1.286365781"
    },
    {
        "name": "Onecare Clinic Yishun",
        "postal_code": "760431",
        "longitude": "103.8475894",
        "latitude": "1.420263342"
    },
    {
        "name": "Oneness Medical",
        "postal_code": "270031",
        "longitude": "103.7970803",
        "latitude": "1.306975268"
    },
    {
        "name": "Ong Clinic & Surgery (Yishun)",
        "postal_code": "760293",
        "longitude": "103.8376052",
        "latitude": "1.436114254"
    },
    {
        "name": "Ong Clinic & Surgery Pte Ltd",
        "postal_code": "650265",
        "longitude": "103.7598628",
        "latitude": "1.350008402"
    },
    {
        "name": "Ong Medical Clinic",
        "postal_code": "563316",
        "longitude": "103.847677",
        "latitude": "1.364625403"
    },
    {
        "name": "P Tan Family Medicine Clinic",
        "postal_code": "570503",
        "longitude": "103.8480475",
        "latitude": "1.349032376"
    },
    {
        "name": "Pacific Family Clinic",
        "postal_code": "154075",
        "longitude": "103.8157116",
        "latitude": "1.288464768"
    },
    {
        "name": "Pacific Medical & Dental Group",
        "postal_code": "760716",
        "longitude": "103.8274494",
        "latitude": "1.426157266"
    },
    {
        "name": "Pan Island Clinic & Surgery",
        "postal_code": "470632",
        "longitude": "103.9141451",
        "latitude": "1.332050946"
    },
    {
        "name": "Pandan Clinic Pte Ltd",
        "postal_code": "600415",
        "longitude": "103.7482586",
        "latitude": "1.320765434"
    },
    {
        "name": "Panhealth Family Clinic (Hougang)",
        "postal_code": "532932",
        "longitude": "103.8822349",
        "latitude": "1.375126661"
    },
    {
        "name": "Parkway Shenton Medical Group",
        "postal_code": "068882",
        "longitude": "103.8498225",
        "latitude": "1.280934745"
    },
    {
        "name": "Parkway Shenton Medical Group",
        "postal_code": "677743",
        "longitude": "103.7643572",
        "latitude": "1.379920452"
    },
    {
        "name": "Pasir Ris Clinic & Surgery Pte Ltd",
        "postal_code": "510442",
        "longitude": "103.9579517",
        "latitude": "1.368932887"
    },
    {
        "name": "Peace Family Clinic",
        "postal_code": "730371",
        "longitude": "103.7867144",
        "latitude": "1.432282258"
    },
    {
        "name": "Phoenix Clinic & Surgery",
        "postal_code": "680150",
        "longitude": "103.7564509",
        "latitude": "1.378203512"
    },
    {
        "name": "Phoenix Medical Group ( Cactus )",
        "postal_code": "567708",
        "longitude": "103.8504687",
        "latitude": "1.39127592"
    },
    {
        "name": "Phoenix Medical Group (Paya Lebar)",
        "postal_code": "409051",
        "longitude": "103.8925808",
        "latitude": "1.31881487"
    },
    {
        "name": "Phoon Clinic And Surgery",
        "postal_code": "470632",
        "longitude": "103.9141451",
        "latitude": "1.332050946"
    },
    {
        "name": "Pier Medical Centre",
        "postal_code": "640725",
        "longitude": "103.6977196",
        "latitude": "1.345453549"
    },
    {
        "name": "Pinetree Medical Clinic",
        "postal_code": "460086",
        "longitude": "103.9389893",
        "latitude": "1.332540843"
    },
    {
        "name": "Pinnacle Family Clinic (Buangkok Square)",
        "postal_code": "530991",
        "longitude": "103.8816231",
        "latitude": "1.384334266"
    },
    {
        "name": "Pinnacle Family Clinic (Compassvale)",
        "postal_code": "543289",
        "longitude": "103.8967979",
        "latitude": "1.397554342"
    },
    {
        "name": "Pinnacle Family Clinic (River Valley)",
        "postal_code": "238297",
        "longitude": "103.8423992",
        "latitude": "1.294205315"
    },
    {
        "name": "Pinnacle Family Clinic (Serangoon North)",
        "postal_code": "550518",
        "longitude": "103.8741031",
        "latitude": "1.371641182"
    },
    {
        "name": "Pinnacle Family Clinic (Woodlands)",
        "postal_code": "730573",
        "longitude": "103.7985076",
        "latitude": "1.431098072"
    },
    {
        "name": "Pioneer Medicare",
        "postal_code": "627606",
        "longitude": "103.6972379",
        "latitude": "1.333783072"
    },
    {
        "name": "Pj Clinic",
        "postal_code": "160036",
        "longitude": "103.8271804",
        "latitude": "1.288300791"
    },
    {
        "name": "Platinum Medical Clinic And Surgery Pte Ltd",
        "postal_code": "760513",
        "longitude": "103.8442553",
        "latitude": "1.416004818"
    },
    {
        "name": "Plushealth Medical Clinic & Surgery",
        "postal_code": "320089",
        "longitude": "103.8549886",
        "latitude": "1.323639137"
    },
    {
        "name": "Point Medical Group (Taman Jurong)",
        "postal_code": "610399",
        "longitude": "103.720462",
        "latitude": "1.334844874"
    },
    {
        "name": "Pow Family Clinic & Surgery",
        "postal_code": "530620",
        "longitude": "103.8839681",
        "latitude": "1.370144007"
    },
    {
        "name": "Praise Family Clinic",
        "postal_code": "520717",
        "longitude": "103.9351473",
        "latitude": "1.35881527"
    },
    {
        "name": "Premier Clinic & Surgery Pte Ltd",
        "postal_code": "560631",
        "longitude": "103.8407357",
        "latitude": "1.379557281"
    },
    {
        "name": "Prime Medical Group Pte Ltd",
        "postal_code": "238859",
        "longitude": "103.8358575",
        "latitude": "1.303872309"
    },
    {
        "name": "Raffles Executive Medical Centre",
        "postal_code": "188770",
        "longitude": "103.8568277",
        "latitude": "1.301204241"
    },
    {
        "name": "Rafflesmedical",
        "postal_code": "689812",
        "longitude": "103.7450118",
        "latitude": "1.384974596"
    },
    {
        "name": "Rafflesmedical",
        "postal_code": "560722",
        "longitude": "103.8475293",
        "latitude": "1.37224394"
    },
    {
        "name": "Rafflesmedical",
        "postal_code": "530809",
        "longitude": "103.8936682",
        "latitude": "1.371196033"
    },
    {
        "name": "Rafflesmedical",
        "postal_code": "120446",
        "longitude": "103.7649278",
        "latitude": "1.312513057"
    },
    {
        "name": "Rafflesmedical",
        "postal_code": "460203",
        "longitude": "103.9291946",
        "latitude": "1.325744613"
    },
    {
        "name": "Rafflesmedical",
        "postal_code": "188770",
        "longitude": "103.8568277",
        "latitude": "1.301204241"
    },
    {
        "name": "Rafflesmedical",
        "postal_code": "678278",
        "longitude": "103.7628428",
        "latitude": "1.378431008"
    },
    {
        "name": "Rc'S Family Clinic Pte Ltd",
        "postal_code": "673635",
        "longitude": "103.7584339",
        "latitude": "1.38650187"
    },
    {
        "name": "Rcmc Rivervale Crescent Medical Centre",
        "postal_code": "541182",
        "longitude": "103.9088923",
        "latitude": "1.390452729"
    },
    {
        "name": "Redwood @ Tpy Clinic And Surgery Pte. Ltd.",
        "postal_code": "310083",
        "longitude": "103.847992",
        "latitude": "1.335787912"
    },
    {
        "name": "Redwood Clinic And Surgery Pte Ltd",
        "postal_code": "158792",
        "longitude": "103.816741",
        "latitude": "1.289634534"
    },
    {
        "name": "Regional Patientcare Medical Group Pte Ltd (Admiralty Place Branch)",
        "postal_code": "730678",
        "longitude": "103.8012931",
        "latitude": "1.439983666"
    },
    {
        "name": "Regional Patientcare Medical Group Pte Ltd (Yishun Central Branch)",
        "postal_code": "760932",
        "longitude": "103.8371504",
        "latitude": "1.426362177"
    },
    {
        "name": "Rochor Centre Clinic",
        "postal_code": "189649",
        "longitude": "103.8527002",
        "latitude": "1.302243271"
    },
    {
        "name": "Rochor Medical Centre",
        "postal_code": "200635",
        "longitude": "103.8552187",
        "latitude": "1.306588502"
    },
    {
        "name": "Rowell Clinic & Surgery",
        "postal_code": "200642",
        "longitude": "103.8564952",
        "latitude": "1.307780514"
    },
    {
        "name": "Roy'S Family Clinic & Surgery",
        "postal_code": "760846",
        "longitude": "103.8346416",
        "latitude": "1.416786347"
    },
    {
        "name": "Royal Care Medical Family Clinic Choa Chu Kang",
        "postal_code": "680818",
        "longitude": "103.7488268",
        "latitude": "1.378026162"
    },
    {
        "name": "Royal Medical Centre",
        "postal_code": "730111",
        "longitude": "103.7820594",
        "latitude": "1.437943817"
    },
    {
        "name": "Ruby Medical Centre Pte Ltd",
        "postal_code": "520505",
        "longitude": "103.9456161",
        "latitude": "1.355548482"
    },
    {
        "name": "Radiant Medical + Aesthetic Centre",
        "postal_code": "530810",
        "longitude": "103.89337",
        "latitude": "1.37158744"
    },
    {
        "name": "Rafflesmedical",
        "postal_code": "738099",
        "longitude": "103.7859815",
        "latitude": "1.436070065"
    },
    {
        "name": "Rafflesmedical",
        "postal_code": "455871",
        "longitude": "103.9231856",
        "latitude": "1.312604231"
    },
    {
        "name": "Rafflesmedical",
        "postal_code": "819642",
        "longitude": "103.9903488",
        "latitude": "1.361708821"
    },
    {
        "name": "Rafflesmedical",
        "postal_code": "570283",
        "longitude": "103.8447486",
        "latitude": "1.358919071"
    },
    {
        "name": "Rafflesmedical",
        "postal_code": "179103",
        "longitude": "103.8527683",
        "latitude": "1.293760281"
    },
    {
        "name": "Oxford Medical Centre",
        "postal_code": "510735",
        "longitude": "103.9365746",
        "latitude": "1.379668121"
    },
    {
        "name": "Oasis Family Clinic",
        "postal_code": "461056",
        "longitude": "103.9410826",
        "latitude": "1.324993793"
    },
    {
        "name": "Rafflesmedical",
        "postal_code": "048623",
        "longitude": "103.8521332",
        "latitude": "1.28469772"
    },
    {
        "name": "Rafflesmedical",
        "postal_code": "079904",
        "longitude": "103.8457386",
        "latitude": "1.274521807"
    },
    {
        "name": "Rafflesmedical",
        "postal_code": "039594",
        "longitude": "103.857027",
        "latitude": "1.291573957"
    },
    {
        "name": "Rafflesmedical",
        "postal_code": "310177",
        "longitude": "103.8488548",
        "latitude": "1.333900341"
    },
    {
        "name": "Rafflesmedical",
        "postal_code": "068912",
        "longitude": "103.8475727",
        "latitude": "1.277630733"
    },
    {
        "name": "Rafflesmedical",
        "postal_code": "159953",
        "longitude": "103.80501",
        "latitude": "1.28861469"
    },
    {
        "name": "Rafflesmedical",
        "postal_code": "819663",
        "longitude": "103.9865622",
        "latitude": "1.356626094"
    },
    {
        "name": "Rafflesmedical",
        "postal_code": "099253",
        "longitude": "103.8202433",
        "latitude": "1.263969912"
    },
    {
        "name": "Rafflesmedical",
        "postal_code": "238874",
        "longitude": "103.8346761",
        "latitude": "1.302424172"
    },
    {
        "name": "Rafflesmedical",
        "postal_code": "529536",
        "longitude": "103.9450717",
        "latitude": "1.35425638"
    },
    {
        "name": "Rafflesmedical",
        "postal_code": "750355",
        "longitude": "103.8187276",
        "latitude": "1.449544856"
    },
    {
        "name": "Rafflesmedical",
        "postal_code": "276474",
        "longitude": "103.7947739",
        "latitude": "1.33123001"
    },
    {
        "name": "Rafflesmedical",
        "postal_code": "486025",
        "longitude": "103.9656689",
        "latitude": "1.333351273"
    },
    {
        "name": "Rafflesmedical",
        "postal_code": "819643",
        "longitude": "103.9890667",
        "latitude": "1.35496949"
    },
    {
        "name": "Rafflesmedical",
        "postal_code": "556083",
        "longitude": "103.8722961",
        "latitude": "1.350769352"
    },
    {
        "name": "Rafflesmedical",
        "postal_code": "018960",
        "longitude": "103.8512559",
        "latitude": "1.278941023"
    },
    {
        "name": "Rafflesmedical",
        "postal_code": "486038",
        "longitude": "103.9629461",
        "latitude": "1.334083605"
    },
    {
        "name": "Rafflesmedical",
        "postal_code": "068898",
        "longitude": "103.8493164",
        "latitude": "1.28013747"
    },
    {
        "name": "Rafflesmedical",
        "postal_code": "518457",
        "longitude": "103.9497157",
        "latitude": "1.372449817"
    },
    {
        "name": "Rafflesmedical",
        "postal_code": "648886",
        "longitude": "103.706685",
        "latitude": "1.339452717"
    },
    {
        "name": "Rafflesmedical",
        "postal_code": "819663",
        "longitude": "103.9865622",
        "latitude": "1.356626094"
    },
    {
        "name": "Rafflesmedical",
        "postal_code": "689578",
        "longitude": "103.7466374",
        "latitude": "1.397067128"
    },
    {
        "name": "Rafflesmedical",
        "postal_code": "018982",
        "longitude": "103.8544576",
        "latitude": "1.279124938"
    },
    {
        "name": "Rafflesmedical",
        "postal_code": "528833",
        "longitude": "103.9530245",
        "latitude": "1.342706196"
    },
    {
        "name": "Rafflesmedical",
        "postal_code": "228208",
        "longitude": "103.8319706",
        "latitude": "1.306113346"
    },
    {
        "name": "Rafflesmedical",
        "postal_code": "545082",
        "longitude": "103.9044837",
        "latitude": "1.39250411"
    },
    {
        "name": "Rafflesmedical",
        "postal_code": "828761",
        "longitude": "103.9021057",
        "latitude": "1.406484621"
    },
    {
        "name": "Rafflesmedical",
        "postal_code": "819659",
        "longitude": "103.9848113",
        "latitude": "1.341262416"
    },
    {
        "name": "Sunbeam Medical Clinic",
        "postal_code": "542318",
        "longitude": "103.8889159",
        "latitude": "1.393828522"
    },
    {
        "name": "Sunbeam Medical Clinic",
        "postal_code": "673443",
        "longitude": "103.7697327",
        "latitude": "1.380570531"
    },
    {
        "name": "Sunnyvale Clinic & Surgery",
        "postal_code": "640498",
        "longitude": "103.7243073",
        "latitude": "1.348333357"
    },
    {
        "name": "Saint-Julien Clinic For Diabetes & Endocrinology",
        "postal_code": "217562",
        "longitude": "103.8539295",
        "latitude": "1.312473241"
    },
    {
        "name": "Sembawang Mart Medical Centre",
        "postal_code": "750511",
        "longitude": "103.8196198",
        "latitude": "1.453810609"
    },
    {
        "name": "Sengkang Family Clinic",
        "postal_code": "544274",
        "longitude": "103.8911567",
        "latitude": "1.382534372"
    },
    {
        "name": "Senja Family Clinic",
        "postal_code": "670609",
        "longitude": "103.7620101",
        "latitude": "1.382857341"
    },
    {
        "name": "Shenton Family Medical Clinic",
        "postal_code": "322102",
        "longitude": "103.862002",
        "latitude": "1.320586095"
    },
    {
        "name": "Shenton Medical Group",
        "postal_code": "098633",
        "longitude": "103.8191393",
        "latitude": "1.26477807"
    },
    {
        "name": "Shenton Medical Group",
        "postal_code": "048583",
        "longitude": "103.8518998",
        "latitude": "1.281183387"
    },
    {
        "name": "Shenton Medical Group",
        "postal_code": "510625",
        "longitude": "103.9419782",
        "latitude": "1.378602398"
    },
    {
        "name": "Shenton Medical Group",
        "postal_code": "238867",
        "longitude": "103.836341",
        "latitude": "1.302064505"
    },
    {
        "name": "Shenton Medical Group",
        "postal_code": "545061",
        "longitude": "103.8931226",
        "latitude": "1.38287002"
    },
    {
        "name": "Shenton Medical Group",
        "postal_code": "486015",
        "longitude": "103.9631219",
        "latitude": "1.3358713"
    },
    {
        "name": "Shenton Medical Group",
        "postal_code": "189562",
        "longitude": "103.8544634",
        "latitude": "1.293403072"
    },
    {
        "name": "Shenton Medical Group",
        "postal_code": "738343",
        "longitude": "103.7860668",
        "latitude": "1.43681963"
    },
    {
        "name": "Shenton Medical Group",
        "postal_code": "550263",
        "longitude": "103.8719396",
        "latitude": "1.353863227"
    },
    {
        "name": "Shenton Medical Group",
        "postal_code": "310126",
        "longitude": "103.8451309",
        "latitude": "1.337814657"
    },
    {
        "name": "Shenton Medical Group",
        "postal_code": "768698",
        "longitude": "103.8412688",
        "latitude": "1.417952885"
    },
    {
        "name": "Shenton Medical Group",
        "postal_code": "797653",
        "longitude": "103.8761255",
        "latitude": "1.391470154"
    },
    {
        "name": "Shenton Wellness Centre",
        "postal_code": "119963",
        "longitude": "103.8012641",
        "latitude": "1.2739864"
    },
    {
        "name": "Shifa Clinic (Jurong)",
        "postal_code": "640501",
        "longitude": "103.7192222",
        "latitude": "1.349812254"
    },
    {
        "name": "Shine Family Clinic",
        "postal_code": "640463",
        "longitude": "103.7232411",
        "latitude": "1.350576987"
    },
    {
        "name": "Sia & Yeo Hougang Clinic Pte Ltd",
        "postal_code": "530573",
        "longitude": "103.8875557",
        "latitude": "1.377556512"
    },
    {
        "name": "Silver Cross Medical",
        "postal_code": "640502",
        "longitude": "103.7183347",
        "latitude": "1.350501276"
    },
    {
        "name": "Spring Medical Clinic (Old Airport Road)",
        "postal_code": "390039",
        "longitude": "103.8850923",
        "latitude": "1.307820603"
    },
    {
        "name": "St Georges Clinic And Surgery Pte Ltd",
        "postal_code": "320003",
        "longitude": "103.8611073",
        "latitude": "1.322587352"
    },
    {
        "name": "Rafflesmedical",
        "postal_code": "278997",
        "longitude": "103.7961072",
        "latitude": "1.310563515"
    },
    {
        "name": "Rafflesmedical",
        "postal_code": "545078",
        "longitude": "103.8950705",
        "latitude": "1.392053141"
    },
    {
        "name": "Rafflesmedical",
        "postal_code": "139654",
        "longitude": "103.7751605",
        "latitude": "1.303020173"
    },
    {
        "name": "Rafflesmedical",
        "postal_code": "528704",
        "longitude": "103.9312922",
        "latitude": "1.358091"
    },
    {
        "name": "Rafflesmedical",
        "postal_code": "769098",
        "longitude": "103.8357765",
        "latitude": "1.429698486"
    },
    {
        "name": "Rafflesmedical",
        "postal_code": "819665",
        "longitude": "103.9836357",
        "latitude": "1.338145216"
    },
    {
        "name": "Red Dot Medical",
        "postal_code": "821660",
        "longitude": "103.9165196",
        "latitude": "1.402621973"
    },
    {
        "name": "Ren Medical Clinic",
        "postal_code": "760101",
        "longitude": "103.8276677",
        "latitude": "1.430535754"
    },
    {
        "name": "Reservoir Road Clinic & Surgery",
        "postal_code": "470704",
        "longitude": "103.9202036",
        "latitude": "1.336354906"
    },
    {
        "name": "River Of Life Family Clinic",
        "postal_code": "680026",
        "longitude": "103.75574",
        "latitude": "1.377621124"
    },
    {
        "name": "Rivervale Family Clinic & Surgery",
        "postal_code": "540118",
        "longitude": "103.901841",
        "latitude": "1.385337361"
    },
    {
        "name": "Royal Care Medical Yishun Grove",
        "postal_code": "760675",
        "longitude": "103.8435589",
        "latitude": "1.420155509"
    },
    {
        "name": "Royal Care Medical Yishun Junction 9",
        "postal_code": "760317",
        "longitude": "103.8422769",
        "latitude": "1.433772813"
    },
    {
        "name": "S & L Family Clinic",
        "postal_code": "760729",
        "longitude": "103.8315983",
        "latitude": "1.425852856"
    },
    {
        "name": "S And L Family Clinic",
        "postal_code": "760235",
        "longitude": "103.838544",
        "latitude": "1.434228893"
    },
    {
        "name": "S G Clinic Family Practice",
        "postal_code": "555980",
        "longitude": "103.8649891",
        "latitude": "1.364359381"
    },
    {
        "name": "S K Tay Clinic & Surgery",
        "postal_code": "520827",
        "longitude": "103.9337192",
        "latitude": "1.349721495"
    },
    {
        "name": "S Lee Clinic",
        "postal_code": "530644",
        "longitude": "103.8812611",
        "latitude": "1.371437365"
    },
    {
        "name": "S S Tan Medical Clinic",
        "postal_code": "760744",
        "longitude": "103.8340492",
        "latitude": "1.429341729"
    },
    {
        "name": "S T Medical Centre",
        "postal_code": "380095",
        "longitude": "103.8861957",
        "latitude": "1.32170329"
    },
    {
        "name": "S Y Lee Clinic",
        "postal_code": "329802",
        "longitude": "103.8503954",
        "latitude": "1.325724726"
    },
    {
        "name": "S. T. Medical Clinic",
        "postal_code": "460531",
        "longitude": "103.9261531",
        "latitude": "1.333129919"
    },
    {
        "name": "Saint-Julien Clinic For Diabetes & Endocrinology",
        "postal_code": "574623",
        "longitude": "103.8376012",
        "latitude": "1.341822826"
    },
    {
        "name": "Sata Commhealth Community Hub",
        "postal_code": "792447",
        "longitude": "103.8732077",
        "latitude": "1.392466329"
    },
    {
        "name": "Sata Commhealth Medical Centre",
        "postal_code": "600135",
        "longitude": "103.7396769",
        "latitude": "1.333825408"
    },
    {
        "name": "Sata Commhealth Medical Centre",
        "postal_code": "468982",
        "longitude": "103.9213914",
        "latitude": "1.327742937"
    },
    {
        "name": "Sata Commhealth Medical Centre",
        "postal_code": "730900",
        "longitude": "103.7869309",
        "latitude": "1.435018296"
    },
    {
        "name": "Sata Commhealth Medical Centre",
        "postal_code": "560715",
        "longitude": "103.845928",
        "latitude": "1.370997264"
    },
    {
        "name": "Sata Commhealth Medical Centre",
        "postal_code": "529482",
        "longitude": "103.9420278",
        "latitude": "1.353441276"
    },
    {
        "name": "Sata Commhealth Medical Centre",
        "postal_code": "347919",
        "longitude": "103.86998",
        "latitude": "1.329154445"
    },
    {
        "name": "Sata Commhealth Medical Centre",
        "postal_code": "649808",
        "longitude": "103.7165185",
        "latitude": "1.345422006"
    },
    {
        "name": "Seasons Clinic",
        "postal_code": "520844",
        "longitude": "103.9365309",
        "latitude": "1.352105836"
    },
    {
        "name": "Sennett Medical Clinic",
        "postal_code": "455871",
        "longitude": "103.9231856",
        "latitude": "1.312604231"
    },
    {
        "name": "Sh Tan Kidney And Medical Clinic",
        "postal_code": "258499",
        "longitude": "103.8201245",
        "latitude": "1.307061564"
    },
    {
        "name": "Shalom Clinic & Surgery",
        "postal_code": "150123",
        "longitude": "103.804019",
        "latitude": "1.286851316"
    },
    {
        "name": "Shalom Medical Group",
        "postal_code": "180231",
        "longitude": "103.8536195",
        "latitude": "1.29681526"
    },
    {
        "name": "Shenton Clinic",
        "postal_code": "640498",
        "longitude": "103.7243073",
        "latitude": "1.348333357"
    },
    {
        "name": "Shenton Family Medical Clinic",
        "postal_code": "600131",
        "longitude": "103.7401775",
        "latitude": "1.334512574"
    },
    {
        "name": "Shenton Family Medical Clinic",
        "postal_code": "560728",
        "longitude": "103.8456829",
        "latitude": "1.372628416"
    },
    {
        "name": "Shenton Family Medical Clinic",
        "postal_code": "080001",
        "longitude": "103.841261",
        "latitude": "1.277034744"
    },
    {
        "name": "Shenton Family Medical Clinic (Bedok Reservoir)",
        "postal_code": "470744",
        "longitude": "103.9216633",
        "latitude": "1.337860426"
    },
    {
        "name": "Shenton Family Medical Clinic (Tampines)",
        "postal_code": "524201",
        "longitude": "103.9535865",
        "latitude": "1.352262314"
    },
    {
        "name": "Shenton Medical Group",
        "postal_code": "079903",
        "longitude": "103.8459238",
        "latitude": "1.275886743"
    },
    {
        "name": "Shenton Medical Group",
        "postal_code": "760160",
        "longitude": "103.8333445",
        "latitude": "1.432414546"
    },
    {
        "name": "Shenton Medical Group",
        "postal_code": "049317",
        "longitude": "103.8520689",
        "latitude": "1.283619584"
    },
    {
        "name": "Shenton Medical Group",
        "postal_code": "098138",
        "longitude": "103.8220387",
        "latitude": "1.257038644"
    },
    {
        "name": "Shenton Medical Group",
        "postal_code": "349253",
        "longitude": "103.8750617",
        "latitude": "1.325295433"
    },
    {
        "name": "Shenton Medical Group",
        "postal_code": "018984",
        "longitude": "103.8545488",
        "latitude": "1.279724915"
    },
    {
        "name": "Shenton Medical Group",
        "postal_code": "648886",
        "longitude": "103.706685",
        "latitude": "1.339452717"
    },
    {
        "name": "Sheraton Medical Clinic",
        "postal_code": "530681",
        "longitude": "103.8856792",
        "latitude": "1.372978403"
    },
    {
        "name": "Shifa Clinic & Surgery",
        "postal_code": "210668",
        "longitude": "103.8514782",
        "latitude": "1.30758124"
    },
    {
        "name": "Sia Family Clinic And Surgery",
        "postal_code": "430010",
        "longitude": "103.8958652",
        "latitude": "1.314839502"
    },
    {
        "name": "Siglap Clinic Pte Ltd",
        "postal_code": "423858",
        "longitude": "103.9117201",
        "latitude": "1.309482763"
    },
    {
        "name": "Silver Cross Clinic (Marsiling)",
        "postal_code": "730305",
        "longitude": "103.7741024",
        "latitude": "1.430361458"
    },
    {
        "name": "Silver Cross Medical",
        "postal_code": "760846",
        "longitude": "103.8346416",
        "latitude": "1.416786347"
    },
    {
        "name": "Silver Cross Medical",
        "postal_code": "278993",
        "longitude": "103.7952579",
        "latitude": "1.311778489"
    },
    {
        "name": "Silver Cross Medical",
        "postal_code": "599728",
        "longitude": "103.7752771",
        "latitude": "1.34235676"
    },
    {
        "name": "Simei Clinic & Surgery",
        "postal_code": "520248",
        "longitude": "103.9535411",
        "latitude": "1.343593763"
    },
    {
        "name": "Simei Medical Centre",
        "postal_code": "520248",
        "longitude": "103.9535411",
        "latitude": "1.343593763"
    },
    {
        "name": "Simon Road Family Clinic",
        "postal_code": "545895",
        "longitude": "103.8859359",
        "latitude": "1.361774363"
    },
    {
        "name": "Sims Drive Medical Clinic",
        "postal_code": "380053",
        "longitude": "103.8800776",
        "latitude": "1.317823747"
    },
    {
        "name": "Sincere Medical & Dental Clinic",
        "postal_code": "760292",
        "longitude": "103.8369664",
        "latitude": "1.436724784"
    },
    {
        "name": "Singapore Aeromedical Centre",
        "postal_code": "539945",
        "longitude": "103.9002809",
        "latitude": "1.343636079"
    },
    {
        "name": "Singapore Technologies Electronics Limited (In-House Medical Clinic)",
        "postal_code": "569061",
        "longitude": "103.8492723",
        "latitude": "1.391603031"
    },
    {
        "name": "Singapore Telecom Clinic",
        "postal_code": "239732",
        "longitude": "103.8388241",
        "latitude": "1.298837315"
    },
    {
        "name": "Singapura Clinic",
        "postal_code": "189620",
        "longitude": "103.8498438",
        "latitude": "1.298845876"
    },
    {
        "name": "Sm Haneefa Clinic",
        "postal_code": "460011",
        "longitude": "103.9248839",
        "latitude": "1.326911375"
    },
    {
        "name": "Soong Clinic And Surgery",
        "postal_code": "140162",
        "longitude": "103.802857",
        "latitude": "1.292254672"
    },
    {
        "name": "Sp Clinic",
        "postal_code": "670117",
        "longitude": "103.7679793",
        "latitude": "1.377301281"
    },
    {
        "name": "St Andrew'S Mission Hospital Clinic (Elliot Road)",
        "postal_code": "458686",
        "longitude": "103.92975",
        "latitude": "1.310757917"
    },
    {
        "name": "St Andrew'S Mission Hospital Clinic (Simei)",
        "postal_code": "529895",
        "longitude": "103.9487995",
        "latitude": "1.341686506"
    },
    {
        "name": "St Engineering In-House Clinic (Changi)",
        "postal_code": "499611",
        "longitude": "103.9723256",
        "latitude": "1.350649164"
    },
    {
        "name": "St Engineering In-House Clinic (Jalan Boon Lay)",
        "postal_code": "619523",
        "longitude": "103.7124323",
        "latitude": "1.339480853"
    },
    {
        "name": "St Engineering In-House Clinic (Paya Lebar)",
        "postal_code": "539938",
        "longitude": "103.8967963",
        "latitude": "1.350047349"
    },
    {
        "name": "St Engineering In-House Clinic (Seletar)",
        "postal_code": "797654",
        "longitude": "103.8628504",
        "latitude": "1.416901779"
    },
    {
        "name": "Starcare Clinic And Surgery  Pte. Ltd.",
        "postal_code": "650207",
        "longitude": "103.7493822",
        "latitude": "1.346248662"
    },
    {
        "name": "Stat Medical Clinic",
        "postal_code": "797601",
        "longitude": "103.8960188",
        "latitude": "1.416907801"
    },
    {
        "name": "Stat Medical Clinic @ Hougang",
        "postal_code": "530311",
        "longitude": "103.8948537",
        "latitude": "1.365667331"
    },
    {
        "name": "Sterling Clinic & Surgery",
        "postal_code": "531003",
        "longitude": "103.876133",
        "latitude": "1.35047536"
    },
    {
        "name": "Sterling Family Clinic",
        "postal_code": "460084",
        "longitude": "103.9392084",
        "latitude": "1.33178245"
    },
    {
        "name": "Steward Clinic",
        "postal_code": "508923",
        "longitude": "103.9704637",
        "latitude": "1.371494825"
    },
    {
        "name": "Street 11 Clinic",
        "postal_code": "521139",
        "longitude": "103.9445092",
        "latitude": "1.34616074"
    },
    {
        "name": "Street 21 Clinic Tampines Pte. Ltd.",
        "postal_code": "522201",
        "longitude": "103.9530099",
        "latitude": "1.353453158"
    },
    {
        "name": "Summit Medical Clinic",
        "postal_code": "560632",
        "longitude": "103.8414324",
        "latitude": "1.37992682"
    },
    {
        "name": "Platinum Medical Centre @Dorm",
        "postal_code": "608596",
        "longitude": "103.751872",
        "latitude": "1.336499316"
    },
    {
        "name": "Platinum Medical Centre Pte Ltd",
        "postal_code": "760504",
        "longitude": "103.8445821",
        "latitude": "1.418401356"
    },
    {
        "name": "Potong Pasir Medical Clinic",
        "postal_code": "350148",
        "longitude": "103.8677743",
        "latitude": "1.33235436"
    },
    {
        "name": "Pristine Medical Clinic",
        "postal_code": "640463",
        "longitude": "103.7232411",
        "latitude": "1.350576987"
    },
    {
        "name": "Prive Clinic",
        "postal_code": "238871",
        "longitude": "103.829588",
        "latitude": "1.306654846"
    },
    {
        "name": "Prohealth Medical Group @Fernvale",
        "postal_code": "797653",
        "longitude": "103.8761255",
        "latitude": "1.391470154"
    },
    {
        "name": "Prohealth Medical Group @Hougang",
        "postal_code": "537476",
        "longitude": "103.9036238",
        "latitude": "1.377915061"
    },
    {
        "name": "Prohealth Medical Group @Punggol Damai",
        "postal_code": "820612",
        "longitude": "103.9086656",
        "latitude": "1.404610031"
    },
    {
        "name": "Prohealth Medical Group @Taman Jurong Pte Ltd",
        "postal_code": "610399",
        "longitude": "103.720462",
        "latitude": "1.334844874"
    },
    {
        "name": "Procross Medical Center",
        "postal_code": "347697",
        "longitude": "103.868214",
        "latitude": "1.331497081"
    },
    {
        "name": "Procross Medical Clinic",
        "postal_code": "731689",
        "longitude": "103.8079254",
        "latitude": "1.444386293"
    },
    {
        "name": "Prohealth Medical Group @Punggol Spectra Pte. Ltd.",
        "postal_code": "824622",
        "longitude": "103.9105369",
        "latitude": "1.40053115"
    },
    {
        "name": "Providence Clinic @ Hillford",
        "postal_code": "596152",
        "longitude": "103.7695439",
        "latitude": "1.344043373"
    },
    {
        "name": "Providence Clinic @ Redhill",
        "postal_code": "150086",
        "longitude": "103.8186736",
        "latitude": "1.286920063"
    },
    {
        "name": "Providence Medical Centre Pte. Ltd.",
        "postal_code": "048424",
        "longitude": "103.8490237",
        "latitude": "1.28240746"
    },
    {
        "name": "Providence Orthopaedics",
        "postal_code": "329563",
        "longitude": "103.8442124",
        "latitude": "1.322140054"
    },
    {
        "name": "Prudence Family Clinic",
        "postal_code": "570512",
        "longitude": "103.8498817",
        "latitude": "1.349622349"
    },
    {
        "name": "Punggol Ripples Family Clinic",
        "postal_code": "824211",
        "longitude": "103.8991985",
        "latitude": "1.400935632"
    },
    {
        "name": "Q & M Medical & Aesthetic Clinic (Farrer Park)",
        "postal_code": "208539",
        "longitude": "103.856624",
        "latitude": "1.311421031"
    },
    {
        "name": "Q & M Medical & Aesthetic Clinic (Tampines Central) Pte. Ltd.",
        "postal_code": "529536",
        "longitude": "103.9450717",
        "latitude": "1.35425638"
    },
    {
        "name": "Q & M Medical Clinic (Buangkok Mrt) Pte. Ltd.",
        "postal_code": "545061",
        "longitude": "103.8931226",
        "latitude": "1.38287002"
    },
    {
        "name": "Q & M Mutual Healthcare Medical Clinic",
        "postal_code": "828868",
        "longitude": "103.9020726",
        "latitude": "1.404546537"
    },
    {
        "name": "Q & M Medical Clinic (Bukit Batok)",
        "postal_code": "650151",
        "longitude": "103.7442115",
        "latitude": "1.348747035"
    },
    {
        "name": "Q & M Medical Family Clinic",
        "postal_code": "550261",
        "longitude": "103.8725245",
        "latitude": "1.354052552"
    },
    {
        "name": "Idoc Clinic",
        "postal_code": "538719",
        "longitude": "103.887832",
        "latitude": "1.379245291"
    },
    {
        "name": "Ipcare Clinic",
        "postal_code": "547530",
        "longitude": "103.8780311",
        "latitude": "1.37203701"
    },
    {
        "name": "My Clinic",
        "postal_code": "598332",
        "longitude": "103.7793138",
        "latitude": "1.336842176"
    },
    {
        "name": "Saudara Clinic By A+J General Physicians",
        "postal_code": "419741",
        "longitude": "103.9046903",
        "latitude": "1.317242365"
    },
    {
        "name": "St. Luke'S Community Clinic",
        "postal_code": "659674",
        "longitude": "103.7421824",
        "latitude": "1.349600412"
    },
    {
        "name": "Standard Clinic & Surgery",
        "postal_code": "820261",
        "longitude": "103.8968239",
        "latitude": "1.405413537"
    },
    {
        "name": "Sunshine Clinic Family Practice & Surgery",
        "postal_code": "520445",
        "longitude": "103.9506584",
        "latitude": "1.358302422"
    },
    {
        "name": "Sunway Medical Centre",
        "postal_code": "329565",
        "longitude": "103.8432528",
        "latitude": "1.320475975"
    },
    {
        "name": "Swiss Clinic",
        "postal_code": "268802",
        "longitude": "103.7956924",
        "latitude": "1.330817401"
    },
    {
        "name": "T Medical Clinic (City Gate)",
        "postal_code": "199597",
        "longitude": "103.8623317",
        "latitude": "1.302315905"
    },
    {
        "name": "T Medical Clinic (Kallang)",
        "postal_code": "380005",
        "longitude": "103.8724919",
        "latitude": "1.312640145"
    },
    {
        "name": "T Medical Clinic",
        "postal_code": "750115",
        "longitude": "103.8287399",
        "latitude": "1.446081882"
    },
    {
        "name": "T S Wong Clinic & Surgery",
        "postal_code": "730166",
        "longitude": "103.7754916",
        "latitude": "1.433317738"
    },
    {
        "name": "Tai Seng Clinic",
        "postal_code": "369551",
        "longitude": "103.8872161",
        "latitude": "1.336379451"
    },
    {
        "name": "Tampines Clinic And Surgery Pte Ltd",
        "postal_code": "521139",
        "longitude": "103.9445092",
        "latitude": "1.34616074"
    },
    {
        "name": "Tampines Medilife Clinic",
        "postal_code": "520801",
        "longitude": "103.938014",
        "latitude": "1.347192331"
    },
    {
        "name": "Tan & Koh Clinic & Surgery",
        "postal_code": "470121",
        "longitude": "103.9099922",
        "latitude": "1.331305178"
    },
    {
        "name": "Tan Lee Clinic & Surgery",
        "postal_code": "510446",
        "longitude": "103.9577269",
        "latitude": "1.370306193"
    },
    {
        "name": "Tan Medical Clinic Pte Ltd",
        "postal_code": "560339",
        "longitude": "103.8491158",
        "latitude": "1.365064922"
    },
    {
        "name": "Tan Medicare Clinic Pte Ltd",
        "postal_code": "560629",
        "longitude": "103.8404087",
        "latitude": "1.38010475"
    },
    {
        "name": "Tan'S T & T Clinic And Surgery",
        "postal_code": "570152",
        "longitude": "103.8546414",
        "latitude": "1.345657203"
    },
    {
        "name": "Tan-Teoh Clinic & Surgery",
        "postal_code": "322101",
        "longitude": "103.8610875",
        "latitude": "1.31942539"
    },
    {
        "name": "Tan-Teoh Clinic & Surgery",
        "postal_code": "322101",
        "longitude": "103.8610875",
        "latitude": "1.31942539"
    },
    {
        "name": "Tan-Teoh Clinic & Surgery (Ang Mo Kio Branch)",
        "postal_code": "560302",
        "longitude": "103.8456602",
        "latitude": "1.367089832"
    },
    {
        "name": "Tanjong Pagar Medical Clinic",
        "postal_code": "082001",
        "longitude": "103.8424336",
        "latitude": "1.275687028"
    },
    {
        "name": "Tay Clinic",
        "postal_code": "389452",
        "longitude": "103.8850312",
        "latitude": "1.313326598"
    },
    {
        "name": "Tay Medical Centre",
        "postal_code": "271006",
        "longitude": "103.7952646",
        "latitude": "1.307115686"
    },
    {
        "name": "Tc Family Clinic Pte Ltd",
        "postal_code": "640526",
        "longitude": "103.7170484",
        "latitude": "1.347671896"
    },
    {
        "name": "Vitacare Family Clinic@Seletar Pte.Ltd.",
        "postal_code": "790417",
        "longitude": "103.8798746",
        "latitude": "1.39158623"
    },
    {
        "name": "Vital-Care Clinic And Surgery Pte Ltd",
        "postal_code": "560525",
        "longitude": "103.8539767",
        "latitude": "1.372626669"
    },
    {
        "name": "Viva Medical Clinic",
        "postal_code": "521450",
        "longitude": "103.9522522",
        "latitude": "1.35836069"
    },
    {
        "name": "Viva Medical Group",
        "postal_code": "521519",
        "longitude": "103.9403816",
        "latitude": "1.357275944"
    },
    {
        "name": "Teban Garden Clinic",
        "postal_code": "600061",
        "longitude": "103.7382928",
        "latitude": "1.322136363"
    },
    {
        "name": "Teh'S Clinic & Surgery",
        "postal_code": "370064",
        "longitude": "103.8871484",
        "latitude": "1.326984045"
    },
    {
        "name": "Tein Clinic & Surgery",
        "postal_code": "530124",
        "longitude": "103.8866553",
        "latitude": "1.352892615"
    },
    {
        "name": "Tek Dispensary",
        "postal_code": "310004",
        "longitude": "103.8555411",
        "latitude": "1.339044798"
    },
    {
        "name": "Temasek Clinic & Surgery",
        "postal_code": "460073",
        "longitude": "103.9439714",
        "latitude": "1.319838031"
    },
    {
        "name": "Temasek Medical Centre",
        "postal_code": "730883",
        "longitude": "103.790548",
        "latitude": "1.442753332"
    },
    {
        "name": "Temasek Medical Centre",
        "postal_code": "680624",
        "longitude": "103.7470848",
        "latitude": "1.398047361"
    },
    {
        "name": "Temasek Medical Centre",
        "postal_code": "750406",
        "longitude": "103.8169776",
        "latitude": "1.452929806"
    },
    {
        "name": "Temasek Medical Centre",
        "postal_code": "650413",
        "longitude": "103.746597",
        "latitude": "1.363565727"
    },
    {
        "name": "Temasek Medical Clinic",
        "postal_code": "310212",
        "longitude": "103.8543345",
        "latitude": "1.340642937"
    },
    {
        "name": "Temasek Medical Clinic",
        "postal_code": "460086",
        "longitude": "103.9389893",
        "latitude": "1.332540843"
    },
    {
        "name": "Teng Clinic",
        "postal_code": "140171",
        "longitude": "103.8038469",
        "latitude": "1.290732462"
    },
    {
        "name": "Teo Clinic & Surgery Pte Ltd",
        "postal_code": "120352",
        "longitude": "103.7713506",
        "latitude": "1.314278603"
    },
    {
        "name": "Teoh Clinic Family Practice",
        "postal_code": "310047",
        "longitude": "103.8540304",
        "latitude": "1.336910298"
    },
    {
        "name": "Textile Centre Clinic",
        "postal_code": "199018",
        "longitude": "103.8616308",
        "latitude": "1.303938357"
    },
    {
        "name": "Th Chia Medical Practice",
        "postal_code": "550151",
        "longitude": "103.8737783",
        "latitude": "1.36934535"
    },
    {
        "name": "Thai Shen Family Clinic Pte Ltd",
        "postal_code": "460084",
        "longitude": "103.9392084",
        "latitude": "1.33178245"
    },
    {
        "name": "The Balmoral Clinic",
        "postal_code": "397693",
        "longitude": "103.876474",
        "latitude": "1.302301084"
    },
    {
        "name": "The Balmoral Clinic  Family Medicine",
        "postal_code": "259708",
        "longitude": "103.8354876",
        "latitude": "1.31643963"
    },
    {
        "name": "The Bishan Family Doctors",
        "postal_code": "570283",
        "longitude": "103.8447486",
        "latitude": "1.358919071"
    },
    {
        "name": "The Chelsea Clinic (Rochester)",
        "postal_code": "138639",
        "longitude": "103.7883712",
        "latitude": "1.305411036"
    },
    {
        "name": "The Chungkiaw Family Practice Pte Ltd",
        "postal_code": "569766",
        "longitude": "103.8403569",
        "latitude": "1.384032485"
    },
    {
        "name": "The Civic Clinic",
        "postal_code": "460537",
        "longitude": "103.9242365",
        "latitude": "1.331773008"
    },
    {
        "name": "The Clinic @ One George Street",
        "postal_code": "049145",
        "longitude": "103.84782",
        "latitude": "1.285694085"
    },
    {
        "name": "The Cliniq",
        "postal_code": "751590",
        "longitude": "103.8266549",
        "latitude": "1.450355732"
    },
    {
        "name": "The Coronation Clinic",
        "postal_code": "269707",
        "longitude": "103.8099996",
        "latitude": "1.323835121"
    },
    {
        "name": "The Doctor'S Clinic",
        "postal_code": "640429",
        "longitude": "103.7244968",
        "latitude": "1.351925131"
    },
    {
        "name": "The Edinburgh Clinic",
        "postal_code": "680306",
        "longitude": "103.742878",
        "latitude": "1.384956725"
    },
    {
        "name": "The Fahrenheit Medical Centre",
        "postal_code": "460218",
        "longitude": "103.9342494",
        "latitude": "1.327492955"
    },
    {
        "name": "The Family Medical Centre (Yishun) Pte. Ltd.",
        "postal_code": "760411",
        "longitude": "103.8474043",
        "latitude": "1.425741789"
    },
    {
        "name": "The Family Practice Clinic & Surgery",
        "postal_code": "140117",
        "longitude": "103.80027",
        "latitude": "1.30659245"
    },
    {
        "name": "The Family Practice-Potong Pasir",
        "postal_code": "350148",
        "longitude": "103.8677743",
        "latitude": "1.33235436"
    },
    {
        "name": "The Flame Tree Medical Centre",
        "postal_code": "574357",
        "longitude": "103.8344346",
        "latitude": "1.352768285"
    },
    {
        "name": "The Healer Clinic + Surgery",
        "postal_code": "550154",
        "longitude": "103.8731155",
        "latitude": "1.370129834"
    },
    {
        "name": "The Medical And Aesthetic Clinic Pte Ltd",
        "postal_code": "387514",
        "longitude": "103.8832653",
        "latitude": "1.315038709"
    },
    {
        "name": "The Olive Tree Family Clinic & Surgery Pte. Ltd.",
        "postal_code": "540303",
        "longitude": "103.8906061",
        "latitude": "1.387381946"
    },
    {
        "name": "The People'S Clinic",
        "postal_code": "680145",
        "longitude": "103.7524669",
        "latitude": "1.381505004"
    },
    {
        "name": "Thomas Clinic & Surgery",
        "postal_code": "100061",
        "longitude": "103.8120071",
        "latitude": "1.275705008"
    },
    {
        "name": "Tiong Bahru Medical Centre",
        "postal_code": "169248",
        "longitude": "103.8292935",
        "latitude": "1.28503457"
    },
    {
        "name": "Toh Guan Family Clinic",
        "postal_code": "601267",
        "longitude": "103.7449372",
        "latitude": "1.34155989"
    },
    {
        "name": "Town Clinic",
        "postal_code": "199551",
        "longitude": "103.8604818",
        "latitude": "1.300977078"
    },
    {
        "name": "Town Hall Clinic Pte Ltd",
        "postal_code": "119976",
        "longitude": "103.8002158",
        "latitude": "1.277499041"
    },
    {
        "name": "Tp Sim Family Clinic & Surgery",
        "postal_code": "570509",
        "longitude": "103.849572",
        "latitude": "1.348629973"
    },
    {
        "name": "Tpc Medical Clinic",
        "postal_code": "078884",
        "longitude": "103.8451554",
        "latitude": "1.276724927"
    },
    {
        "name": "Trinity Medical (Punggol)",
        "postal_code": "823273",
        "longitude": "103.9012624",
        "latitude": "1.402303013"
    },
    {
        "name": "True Medical Clinic Paya Lebar Quarter",
        "postal_code": "409057",
        "longitude": "103.8928367",
        "latitude": "1.317561159"
    },
    {
        "name": "True Medical Clinic Tampines West",
        "postal_code": "520824",
        "longitude": "103.9327149",
        "latitude": "1.349037435"
    },
    {
        "name": "Tsi & Partners Family Clinic",
        "postal_code": "550151",
        "longitude": "103.8737783",
        "latitude": "1.36934535"
    },
    {
        "name": "Twin City Medical Centre",
        "postal_code": "237994",
        "longitude": "103.8320221",
        "latitude": "1.293422737"
    },
    {
        "name": "Twin City Medical Practice",
        "postal_code": "238874",
        "longitude": "103.8346761",
        "latitude": "1.302424172"
    },
    {
        "name": "Tampines Family Medicine Clinic",
        "postal_code": "528523",
        "longitude": "103.9404081",
        "latitude": "1.353133598"
    },
    {
        "name": "Tampines Medical Centre",
        "postal_code": "520267",
        "longitude": "103.9492592",
        "latitude": "1.350772788"
    },
    {
        "name": "Tampines West Medical Clinic",
        "postal_code": "520801",
        "longitude": "103.938014",
        "latitude": "1.347192331"
    },
    {
        "name": "Tan & Yik Clinic & Surgery",
        "postal_code": "570116",
        "longitude": "103.8493161",
        "latitude": "1.34780072"
    },
    {
        "name": "Tay Clinic",
        "postal_code": "470117",
        "longitude": "103.9086889",
        "latitude": "1.331413249"
    },
    {
        "name": "Tayka Medical",
        "postal_code": "209562",
        "longitude": "103.8548875",
        "latitude": "1.30946144"
    },
    {
        "name": "Tayka Medical Family Clinic",
        "postal_code": "640526",
        "longitude": "103.7170484",
        "latitude": "1.347671896"
    },
    {
        "name": "Teck Ghee Clinic (Dr Tan Yang Khai) Pte Ltd",
        "postal_code": "560451",
        "longitude": "103.8555278",
        "latitude": "1.368793142"
    },
    {
        "name": "The Chong Family Clinic Pte Ltd",
        "postal_code": "120442",
        "longitude": "103.7645186",
        "latitude": "1.314122542"
    },
    {
        "name": "The Clinic @ Aperia",
        "postal_code": "339511",
        "longitude": "103.8643264",
        "latitude": "1.309711207"
    },
    {
        "name": "The Clinic @ Business City",
        "postal_code": "117439",
        "longitude": "103.7990648",
        "latitude": "1.274827492"
    },
    {
        "name": "The Clinic @ Campus",
        "postal_code": "178901",
        "longitude": "103.8501058",
        "latitude": "1.296656792"
    },
    {
        "name": "The Clinic @ Capitagreen",
        "postal_code": "048946",
        "longitude": "103.8500838",
        "latitude": "1.281858036"
    },
    {
        "name": "The Clinic @ Tai Seng",
        "postal_code": "539775",
        "longitude": "103.8888256",
        "latitude": "1.336315575"
    },
    {
        "name": "The Clinic Group @ Marina One",
        "postal_code": "018935",
        "longitude": "103.8528448",
        "latitude": "1.27737235"
    },
    {
        "name": "The Clinic@Fusionopolis",
        "postal_code": "138522",
        "longitude": "103.788101",
        "latitude": "1.299862514"
    },
    {
        "name": "The Dublin Clinic",
        "postal_code": "120109",
        "longitude": "103.7707761",
        "latitude": "1.321980677"
    },
    {
        "name": "The Family Clinic @ Towner",
        "postal_code": "322101",
        "longitude": "103.8610875",
        "latitude": "1.31942539"
    },
    {
        "name": "The Family Physician Clinic",
        "postal_code": "552542",
        "longitude": "103.871417",
        "latitude": "1.37368393"
    },
    {
        "name": "The Family Practice@ Skyville",
        "postal_code": "141085",
        "longitude": "103.8097586",
        "latitude": "1.295319663"
    },
    {
        "name": "The Good Life Medical Center",
        "postal_code": "574623",
        "longitude": "103.8376012",
        "latitude": "1.341822826"
    },
    {
        "name": "The Heart Doctors Clinic",
        "postal_code": "574623",
        "longitude": "103.8376012",
        "latitude": "1.341822826"
    },
    {
        "name": "The Pinnacle Medical Centre @ Maritime",
        "postal_code": "089760",
        "longitude": "103.8403501",
        "latitude": "1.276617936"
    },
    {
        "name": "The Singapore Clinic For Kidney Diseases (Pte Ltd)",
        "postal_code": "228510",
        "longitude": "103.8354393",
        "latitude": "1.305165214"
    },
    {
        "name": "The Tenteram Clinic",
        "postal_code": "322116",
        "longitude": "103.8608074",
        "latitude": "1.32754908"
    },
    {
        "name": "The Iclinic",
        "postal_code": "164018",
        "longitude": "103.8267854",
        "latitude": "1.285697429"
    },
    {
        "name": "Tng Family Clinic",
        "postal_code": "560347",
        "longitude": "103.8485763",
        "latitude": "1.367338583"
    },
    {
        "name": "Tong Clinic & Surgery",
        "postal_code": "563316",
        "longitude": "103.847677",
        "latitude": "1.364625403"
    },
    {
        "name": "Trinity Medical & Aesthetic Clinic",
        "postal_code": "520151",
        "longitude": "103.9572689",
        "latitude": "1.345754827"
    },
    {
        "name": "Trinity Medical (Shenton)",
        "postal_code": "068809",
        "longitude": "103.8484086",
        "latitude": "1.276980707"
    },
    {
        "name": "Trinity Medical Centre (Marine Parade)",
        "postal_code": "440087",
        "longitude": "103.9056393",
        "latitude": "1.302453178"
    },
    {
        "name": "Trinity Medical Clinic",
        "postal_code": "131019",
        "longitude": "103.7845484",
        "latitude": "1.307353803"
    },
    {
        "name": "Trinity Medical Clinic",
        "postal_code": "600130",
        "longitude": "103.7393213",
        "latitude": "1.334724904"
    },
    {
        "name": "Trucare Medical And Surgery",
        "postal_code": "533971",
        "longitude": "103.8952915",
        "latitude": "1.370504455"
    },
    {
        "name": "Trucare Medical And Surgery",
        "postal_code": "561226",
        "longitude": "103.8392839",
        "latitude": "1.36749458"
    },
    {
        "name": "Truecare Clinic",
        "postal_code": "218374",
        "longitude": "103.8542331",
        "latitude": "1.314381893"
    },
    {
        "name": "Tzu Chi Free Clinic (Singapore)",
        "postal_code": "150090",
        "longitude": "103.8187585",
        "latitude": "1.28499477"
    },
    {
        "name": "Ubi Family Clinic & Surgery",
        "postal_code": "400305",
        "longitude": "103.9023175",
        "latitude": "1.329421112"
    },
    {
        "name": "Unicare Family Clinic & Surgery",
        "postal_code": "640216",
        "longitude": "103.7116805",
        "latitude": "1.34967447"
    },
    {
        "name": "Unicare Family Clinic & Surgery",
        "postal_code": "640175",
        "longitude": "103.7094853",
        "latitude": "1.346689167"
    },
    {
        "name": "Unihealth 24-Hr Clinic (Toa Payoh)",
        "postal_code": "310178",
        "longitude": "103.8492645",
        "latitude": "1.333580258"
    },
    {
        "name": "Union Medical Clinic & Surgery",
        "postal_code": "550152",
        "longitude": "103.872614",
        "latitude": "1.369347268"
    },
    {
        "name": "United Health Family Clinic & Surgery",
        "postal_code": "760627",
        "longitude": "103.8370051",
        "latitude": "1.417704099"
    },
    {
        "name": "United Medical Clinic",
        "postal_code": "200025",
        "longitude": "103.8582215",
        "latitude": "1.306215164"
    },
    {
        "name": "United Medical Practitioners",
        "postal_code": "522201",
        "longitude": "103.9530099",
        "latitude": "1.353453158"
    },
    {
        "name": "Universal Medical Clinic",
        "postal_code": "760103",
        "longitude": "103.8288928",
        "latitude": "1.431369349"
    },
    {
        "name": "Universal Medical Clinic",
        "postal_code": "527201",
        "longitude": "103.9538583",
        "latitude": "1.352921625"
    },
    {
        "name": "Universal Medical Clinic",
        "postal_code": "760235",
        "longitude": "103.838544",
        "latitude": "1.434228893"
    },
    {
        "name": "Universal Medical Clinic",
        "postal_code": "650164",
        "longitude": "103.7428317",
        "latitude": "1.347716975"
    },
    {
        "name": "Usrah Medical Clinic",
        "postal_code": "460510",
        "longitude": "103.9310515",
        "latitude": "1.332123133"
    },
    {
        "name": "Unihealth Clinic (Bedok)",
        "postal_code": "460214",
        "longitude": "103.932493",
        "latitude": "1.325875652"
    },
    {
        "name": "United Medical Practitioners",
        "postal_code": "521139",
        "longitude": "103.9445092",
        "latitude": "1.34616074"
    },
    {
        "name": "Urban Medical Centre",
        "postal_code": "068900",
        "longitude": "103.848971",
        "latitude": "1.279548447"
    },
    {
        "name": "Vernon Clinic & Surgery",
        "postal_code": "199001",
        "longitude": "103.8618518",
        "latitude": "1.302945287"
    },
    {
        "name": "Victory Clinic And Surgery",
        "postal_code": "270021",
        "longitude": "103.788546",
        "latitude": "1.310103026"
    },
    {
        "name": "Vista Medical Centre",
        "postal_code": "118136",
        "longitude": "103.7859096",
        "latitude": "1.279803223"
    },
    {
        "name": "Vitacare Family Clinic @ Canberra Pte. Ltd.",
        "postal_code": "750361",
        "longitude": "103.8139368",
        "latitude": "1.446315068"
    },
    {
        "name": "Victor'S Family Clinic",
        "postal_code": "310168",
        "longitude": "103.8434232",
        "latitude": "1.331766431"
    },
    {
        "name": "Victoria Medical House",
        "postal_code": "730888",
        "longitude": "103.7953144",
        "latitude": "1.437123015"
    },
    {
        "name": "Vitacare Family Clinic (Punggol Central)",
        "postal_code": "824622",
        "longitude": "103.9105369",
        "latitude": "1.40053115"
    },
    {
        "name": "Vitacare Family Clinic@Punggol West Pte Ltd",
        "postal_code": "820218",
        "longitude": "103.895387",
        "latitude": "1.403227125"
    },
    {
        "name": "Rafflesmedical",
        "postal_code": "510259",
        "longitude": "103.9645985",
        "latitude": "1.36645364"
    },
    {
        "name": "Rafflesmedical",
        "postal_code": "600131",
        "longitude": "103.7401775",
        "latitude": "1.334512574"
    },
    {
        "name": "Rafflesmedical",
        "postal_code": "819643",
        "longitude": "103.9890667",
        "latitude": "1.35496949"
    },
    {
        "name": "Viva Medical Group (Westside)",
        "postal_code": "127371",
        "longitude": "103.7661313",
        "latitude": "1.30369749"
    },
    {
        "name": "W Medical",
        "postal_code": "750365",
        "longitude": "103.8162639",
        "latitude": "1.444368325"
    },
    {
        "name": "W P Sim Family Clinic & Surgery",
        "postal_code": "550153",
        "longitude": "103.8723123",
        "latitude": "1.369950997"
    },
    {
        "name": "W Y Teh Family Clinic And Surgery",
        "postal_code": "520462",
        "longitude": "103.9551111",
        "latitude": "1.359013182"
    },
    {
        "name": "W. H. Yak Family Clinic",
        "postal_code": "462025",
        "longitude": "103.9338356",
        "latitude": "1.323250134"
    },
    {
        "name": "Wan Medical Clinic",
        "postal_code": "460416",
        "longitude": "103.9306849",
        "latitude": "1.328403828"
    },
    {
        "name": "Wee'S Family Clinic & Surgery",
        "postal_code": "320088",
        "longitude": "103.8551716",
        "latitude": "1.32324727"
    },
    {
        "name": "Well Family Clinic & Surgery",
        "postal_code": "560555",
        "longitude": "103.857024",
        "latitude": "1.371196664"
    },
    {
        "name": "Wen & Weng Family Clinic",
        "postal_code": "750505",
        "longitude": "103.8225347",
        "latitude": "1.450262019"
    },
    {
        "name": "West Coast Clinic & Surgery (Clementi West) Pte Ltd",
        "postal_code": "120722",
        "longitude": "103.7637596",
        "latitude": "1.302913593"
    },
    {
        "name": "Whampoa Clinic",
        "postal_code": "320088",
        "longitude": "103.8551716",
        "latitude": "1.32324727"
    },
    {
        "name": "Whitecoat Medical",
        "postal_code": "159545",
        "longitude": "103.8204116",
        "latitude": "1.28239351"
    },
    {
        "name": "Winstedt Clinic",
        "postal_code": "207408",
        "longitude": "103.8533402",
        "latitude": "1.306218098"
    },
    {
        "name": "Wl&H Medical",
        "postal_code": "228208",
        "longitude": "103.8319706",
        "latitude": "1.306113346"
    },
    {
        "name": "Wong Clinic & Surgery",
        "postal_code": "550153",
        "longitude": "103.8723123",
        "latitude": "1.369950997"
    },
    {
        "name": "Wong Clinic And Surgery",
        "postal_code": "560416",
        "longitude": "103.8551037",
        "latitude": "1.364541709"
    },
    {
        "name": "Wong Family Clinic & Surgery Pte Ltd",
        "postal_code": "470117",
        "longitude": "103.9086889",
        "latitude": "1.331413249"
    },
    {
        "name": "Woodlands Clinic",
        "postal_code": "730131",
        "longitude": "103.7786134",
        "latitude": "1.43847984"
    },
    {
        "name": "Woodlands Family Clinic",
        "postal_code": "730305",
        "longitude": "103.7741024",
        "latitude": "1.430361458"
    },
    {
        "name": "Woodlands Medical Centre",
        "postal_code": "730210",
        "longitude": "103.7736804",
        "latitude": "1.446207088"
    },
    {
        "name": "Wu Clinic & Surgery",
        "postal_code": "600249",
        "longitude": "103.7392597",
        "latitude": "1.342562423"
    },
    {
        "name": "Waheeda'S Clinic & Surgery",
        "postal_code": "219155",
        "longitude": "103.8515675",
        "latitude": "1.306965234"
    },
    {
        "name": "Wee Healthfirst Medical Clinic",
        "postal_code": "120378",
        "longitude": "103.767417",
        "latitude": "1.317412041"
    },
    {
        "name": "Wee'S Clinic & Surgery Pte. Ltd.",
        "postal_code": "460418",
        "longitude": "103.9300365",
        "latitude": "1.328564212"
    },
    {
        "name": "Well Medical Clinic & Surgery",
        "postal_code": "510739",
        "longitude": "103.9367962",
        "latitude": "1.378505726"
    },
    {
        "name": "Wellcare Family Clinic",
        "postal_code": "760747",
        "longitude": "103.8334881",
        "latitude": "1.428225544"
    },
    {
        "name": "Winsome Medical & Dental Center",
        "postal_code": "320081",
        "longitude": "103.8563264",
        "latitude": "1.324004275"
    },
    {
        "name": "Wong Clinic",
        "postal_code": "460539",
        "longitude": "103.9253073",
        "latitude": "1.331313866"
    },
    {
        "name": "Woodgrove Medical",
        "postal_code": "739065",
        "longitude": "103.7811369",
        "latitude": "1.429194681"
    },
    {
        "name": "Y M Chan Clinic & Surgery",
        "postal_code": "520406",
        "longitude": "103.9457929",
        "latitude": "1.357828983"
    },
    {
        "name": "Y T Lim Clinic",
        "postal_code": "522201",
        "longitude": "103.9530099",
        "latitude": "1.353453158"
    },
    {
        "name": "Yang & Chin Medical & Dental Associates Yang Ing Shyong Medical & Aesthetic Clinic",
        "postal_code": "521139",
        "longitude": "103.9445092",
        "latitude": "1.34616074"
    },
    {
        "name": "Yang & Yap Clinic And Surgery (Pte Ltd)",
        "postal_code": "460537",
        "longitude": "103.9242365",
        "latitude": "1.331773008"
    },
    {
        "name": "Yap Family Clinic",
        "postal_code": "730132",
        "longitude": "103.7780258",
        "latitude": "1.438281898"
    },
    {
        "name": "Yap Medicare Clinic & Surgery",
        "postal_code": "260008",
        "longitude": "103.8053738",
        "latitude": "1.316411901"
    },
    {
        "name": "Yap Wee See Respiratory And Sleep Clinic",
        "postal_code": "329563",
        "longitude": "103.8442124",
        "latitude": "1.322140054"
    },
    {
        "name": "Yeo Clinic",
        "postal_code": "650134",
        "longitude": "103.7445096",
        "latitude": "1.35159087"
    },
    {
        "name": "Yeo'S Clinic",
        "postal_code": "120354",
        "longitude": "103.7708611",
        "latitude": "1.313513864"
    },
    {
        "name": "Yim Clinic",
        "postal_code": "161011",
        "longitude": "103.8287899",
        "latitude": "1.286365781"
    },
    {
        "name": "Yim Medical Centre (Admiralty Mrt)",
        "postal_code": "730678",
        "longitude": "103.8012931",
        "latitude": "1.439983666"
    },
    {
        "name": "Yishun Ring Road Clinic",
        "postal_code": "760236",
        "longitude": "103.8389989",
        "latitude": "1.43416808"
    },
    {
        "name": "Yishunone Family Clinic",
        "postal_code": "760743",
        "longitude": "103.833671",
        "latitude": "1.429899834"
    },
    {
        "name": "Yong Clinic & Surgery",
        "postal_code": "760632",
        "longitude": "103.8391869",
        "latitude": "1.418567368"
    },
    {
        "name": "Yoong Family Clinic & Surgery",
        "postal_code": "520333",
        "longitude": "103.9611297",
        "latitude": "1.353357195"
    },
    {
        "name": "Ysl Aljunied Clinic & Surgery",
        "postal_code": "360005",
        "longitude": "103.8798985",
        "latitude": "1.33372866"
    },
    {
        "name": "Ysl Bedok Clinic & Surgery",
        "postal_code": "460539",
        "longitude": "103.9253073",
        "latitude": "1.331313866"
    },
    {
        "name": "Yarra Medical Clinic",
        "postal_code": "128020",
        "longitude": "103.7574513",
        "latitude": "1.316413219"
    },
    {
        "name": "Yio Chu Kang Mrt Clinic Pte Ltd",
        "postal_code": "560635",
        "longitude": "103.8423784",
        "latitude": "1.380768961"
    },
    {
        "name": "Zenith Medical Clinic",
        "postal_code": "823266",
        "longitude": "103.8978052",
        "latitude": "1.405154198"
    },
    {
        "name": "Zam Family Clinic",
        "postal_code": "680516",
        "longitude": "103.7435251",
        "latitude": "1.390950824"
    },
    {
        "name": "Banyan Clinic @ Jw",
        "postal_code": "640502",
        "longitude": "103.7183347",
        "latitude": "1.350501276"
    },
    {
        "name": "I.Medical & I.Aesthetics",
        "postal_code": "768019",
        "longitude": "103.8361777",
        "latitude": "1.42790289"
    },
    {
        "name": "Icare Medical And Wellness Clinic",
        "postal_code": "160022",
        "longitude": "103.8288242",
        "latitude": "1.288746037"
    }
]